{
  "comarcas": [
    {
      "nome": "Sede / Não Informado",
      "total": 3095,
      "magistrados": 45,
      "servidores": 1405,
      "total_bruto": 61649104.129999645,
      "total_magistrado_bruto": 3460027.4699999997,
      "total_servidor_bruto": 31108688.31999991,
      "lat": null,
      "lon": null,
      "has_coords": false
    },
    {
      "nome": "Cuiabá",
      "total": 1149,
      "magistrados": 97,
      "servidores": 975,
      "total_bruto": 24799659.039999984,
      "total_magistrado_bruto": 7288532.310000001,
      "total_servidor_bruto": 17102913.819999978,
      "lat": -15.5961,
      "lon": -56.0969,
      "has_coords": true
    },
    {
      "nome": "Várzea Grande",
      "total": 269,
      "magistrados": 21,
      "servidores": 222,
      "total_bruto": 5711901.979999995,
      "total_magistrado_bruto": 1560647.0100000002,
      "total_servidor_bruto": 4019868.9899999998,
      "lat": -15.6469,
      "lon": -56.133,
      "has_coords": true
    },
    {
      "nome": "Rondonópolis",
      "total": 232,
      "magistrados": 17,
      "servidores": 196,
      "total_bruto": 4821782.070000001,
      "total_magistrado_bruto": 1254892.7100000002,
      "total_servidor_bruto": 3495944.3900000006,
      "lat": -16.4699,
      "lon": -54.6362,
      "has_coords": true
    },
    {
      "nome": "Sinop",
      "total": 162,
      "magistrados": 13,
      "servidores": 142,
      "total_bruto": 3460379.3799999985,
      "total_magistrado_bruto": 921500.8,
      "total_servidor_bruto": 2509333.0099999993,
      "lat": -11.8642,
      "lon": -55.5028,
      "has_coords": true
    },
    {
      "nome": "Barra do Garças",
      "total": 126,
      "magistrados": 8,
      "servidores": 108,
      "total_bruto": 2528040.409999999,
      "total_magistrado_bruto": 590135.9900000001,
      "total_servidor_bruto": 1894632.9999999995,
      "lat": -15.8899,
      "lon": -52.2569,
      "has_coords": true
    },
    {
      "nome": "Cáceres",
      "total": 124,
      "magistrados": 8,
      "servidores": 110,
      "total_bruto": 2668078.5300000003,
      "total_magistrado_bruto": 586462.9299999999,
      "total_servidor_bruto": 2051838.7600000002,
      "lat": -16.0706,
      "lon": -57.6815,
      "has_coords": true
    },
    {
      "nome": "Tangará da Serra",
      "total": 116,
      "magistrados": 8,
      "servidores": 102,
      "total_bruto": 2246827.86,
      "total_magistrado_bruto": 591136.09,
      "total_servidor_bruto": 1633137.2000000002,
      "lat": -14.6222,
      "lon": -57.5046,
      "has_coords": true
    },
    {
      "nome": "Primavera do Leste",
      "total": 101,
      "magistrados": 7,
      "servidores": 88,
      "total_bruto": 1939230.9199999992,
      "total_magistrado_bruto": 506471.29000000004,
      "total_servidor_bruto": 1409266.8399999992,
      "lat": -15.5576,
      "lon": -54.2998,
      "has_coords": true
    },
    {
      "nome": "Sorriso",
      "total": 100,
      "magistrados": 8,
      "servidores": 85,
      "total_bruto": 1976357.5799999994,
      "total_magistrado_bruto": 556874.0900000001,
      "total_servidor_bruto": 1397046.5700000003,
      "lat": -12.5441,
      "lon": -55.7271,
      "has_coords": true
    },
    {
      "nome": "Lucas do Rio Verde",
      "total": 85,
      "magistrados": 7,
      "servidores": 72,
      "total_bruto": 1687832.4400000002,
      "total_magistrado_bruto": 506991.97,
      "total_servidor_bruto": 1158636.2300000002,
      "lat": -13.0558,
      "lon": -55.913,
      "has_coords": true
    },
    {
      "nome": "Alta Floresta",
      "total": 80,
      "magistrados": 5,
      "servidores": 67,
      "total_bruto": 1405190.1700000002,
      "total_magistrado_bruto": 367811.54000000004,
      "total_servidor_bruto": 1005087.14,
      "lat": -9.875,
      "lon": -56.086,
      "has_coords": true
    },
    {
      "nome": "Diamantino",
      "total": 66,
      "magistrados": 3,
      "servidores": 62,
      "total_bruto": 1266810.98,
      "total_magistrado_bruto": 221410.71000000002,
      "total_servidor_bruto": 1042256.73,
      "lat": -14.4069,
      "lon": -56.4451,
      "has_coords": true
    },
    {
      "nome": "Jaciara",
      "total": 52,
      "magistrados": 3,
      "servidores": 43,
      "total_bruto": 1049464.0,
      "total_magistrado_bruto": 220949.52000000002,
      "total_servidor_bruto": 808621.7999999998,
      "lat": -15.9754,
      "lon": -54.9706,
      "has_coords": true
    },
    {
      "nome": "Nova Mutum",
      "total": 51,
      "magistrados": 3,
      "servidores": 41,
      "total_bruto": 903193.9700000001,
      "total_magistrado_bruto": 220866.69,
      "total_servidor_bruto": 651722.27,
      "lat": -13.8283,
      "lon": -56.0793,
      "has_coords": true
    },
    {
      "nome": "Campo Verde",
      "total": 49,
      "magistrados": 3,
      "servidores": 40,
      "total_bruto": 993146.0200000001,
      "total_magistrado_bruto": 217658.46000000002,
      "total_servidor_bruto": 757397.5900000001,
      "lat": -15.5436,
      "lon": -55.1657,
      "has_coords": true
    },
    {
      "nome": "Pontes e Lacerda",
      "total": 48,
      "magistrados": 3,
      "servidores": 43,
      "total_bruto": 852314.38,
      "total_magistrado_bruto": 219328.33000000002,
      "total_servidor_bruto": 622369.0399999999,
      "lat": -15.2239,
      "lon": -59.3361,
      "has_coords": true
    },
    {
      "nome": "Colíder",
      "total": 48,
      "magistrados": 3,
      "servidores": 41,
      "total_bruto": 875064.2100000001,
      "total_magistrado_bruto": 219671.44,
      "total_servidor_bruto": 645214.87,
      "lat": -10.8133,
      "lon": -55.4499,
      "has_coords": true
    },
    {
      "nome": "Alto Araguaia",
      "total": 48,
      "magistrados": 2,
      "servidores": 43,
      "total_bruto": 882340.01,
      "total_magistrado_bruto": 147939.56,
      "total_servidor_bruto": 723632.1799999999,
      "lat": -17.3153,
      "lon": -53.2149,
      "has_coords": true
    },
    {
      "nome": "Água Boa",
      "total": 47,
      "magistrados": 4,
      "servidores": 32,
      "total_bruto": 800635.8500000001,
      "total_magistrado_bruto": 291849.86,
      "total_servidor_bruto": 478452.06,
      "lat": -14.0216,
      "lon": -52.1583,
      "has_coords": true
    },
    {
      "nome": "Barra do Bugres",
      "total": 42,
      "magistrados": 2,
      "servidores": 38,
      "total_bruto": 783326.86,
      "total_magistrado_bruto": 149051.91999999998,
      "total_servidor_bruto": 627559.2799999999,
      "lat": -15.0683,
      "lon": -57.1816,
      "has_coords": true
    },
    {
      "nome": "Mirassol D´Oeste",
      "total": 42,
      "magistrados": 0,
      "servidores": 39,
      "total_bruto": 707382.2000000001,
      "total_magistrado_bruto": 0.0,
      "total_servidor_bruto": 698262.72,
      "lat": -15.6699,
      "lon": -58.0998,
      "has_coords": true
    },
    {
      "nome": "Poxoréu",
      "total": 41,
      "magistrados": 1,
      "servidores": 36,
      "total_bruto": 675372.85,
      "total_magistrado_bruto": 73842.46,
      "total_servidor_bruto": 588639.1400000001,
      "lat": -15.8318,
      "lon": -54.3869,
      "has_coords": true
    },
    {
      "nome": "Canarana",
      "total": 40,
      "magistrados": 2,
      "servidores": 33,
      "total_bruto": 633987.5700000001,
      "total_magistrado_bruto": 144020.82,
      "total_servidor_bruto": 470411.0799999999,
      "lat": -13.5459,
      "lon": -52.2703,
      "has_coords": true
    },
    {
      "nome": "Chapada dos Guimarães",
      "total": 38,
      "magistrados": 2,
      "servidores": 33,
      "total_bruto": 743701.29,
      "total_magistrado_bruto": 118136.95000000001,
      "total_servidor_bruto": 615438.3400000001,
      "lat": -15.4614,
      "lon": -55.7505,
      "has_coords": true
    },
    {
      "nome": "Juína",
      "total": 37,
      "magistrados": 0,
      "servidores": 28,
      "total_bruto": 456348.97999999986,
      "total_magistrado_bruto": 0.0,
      "total_servidor_bruto": 425601.6099999999,
      "lat": -11.3742,
      "lon": -58.7423,
      "has_coords": true
    },
    {
      "nome": "Peixoto de Azevedo",
      "total": 37,
      "magistrados": 2,
      "servidores": 29,
      "total_bruto": 610735.08,
      "total_magistrado_bruto": 143409.5,
      "total_servidor_bruto": 444792.5800000001,
      "lat": -10.2274,
      "lon": -54.9774,
      "has_coords": true
    },
    {
      "nome": "Campo Novo do Parecis",
      "total": 34,
      "magistrados": 2,
      "servidores": 29,
      "total_bruto": 616111.1599999998,
      "total_magistrado_bruto": 148467.56,
      "total_servidor_bruto": 458929.74,
      "lat": -13.6716,
      "lon": -57.8927,
      "has_coords": true
    },
    {
      "nome": "Nova Xavantina",
      "total": 34,
      "magistrados": 2,
      "servidores": 30,
      "total_bruto": 603651.45,
      "total_magistrado_bruto": 145912.52,
      "total_servidor_bruto": 450768.02999999997,
      "lat": -14.6682,
      "lon": -52.3553,
      "has_coords": true
    },
    {
      "nome": "Juara",
      "total": 31,
      "magistrados": 0,
      "servidores": 28,
      "total_bruto": 409050.64999999997,
      "total_magistrado_bruto": 0.0,
      "total_servidor_bruto": 399473.80999999994,
      "lat": -11.2614,
      "lon": -57.5201,
      "has_coords": true
    },
    {
      "nome": "Vila Rica",
      "total": 29,
      "magistrados": 1,
      "servidores": 21,
      "total_bruto": 371608.30999999994,
      "total_magistrado_bruto": 43728.53,
      "total_servidor_bruto": 303192.3,
      "lat": -10.0039,
      "lon": -51.1169,
      "has_coords": true
    },
    {
      "nome": "Paranatinga",
      "total": 29,
      "magistrados": 1,
      "servidores": 27,
      "total_bruto": 519233.4,
      "total_magistrado_bruto": 74710.37,
      "total_servidor_bruto": 441379.49,
      "lat": -14.4278,
      "lon": -54.0524,
      "has_coords": true
    },
    {
      "nome": "São José do Rio Claro",
      "total": 29,
      "magistrados": 2,
      "servidores": 23,
      "total_bruto": 554175.12,
      "total_magistrado_bruto": 145383.25,
      "total_servidor_bruto": 394361.67,
      "lat": -13.4456,
      "lon": -56.7249,
      "has_coords": true
    },
    {
      "nome": "Porto Alegre do Norte",
      "total": 29,
      "magistrados": 0,
      "servidores": 24,
      "total_bruto": 363369.05999999994,
      "total_magistrado_bruto": 0.0,
      "total_servidor_bruto": 340544.45999999996,
      "lat": -10.8778,
      "lon": -51.6401,
      "has_coords": true
    },
    {
      "nome": "Nortelândia",
      "total": 27,
      "magistrados": 1,
      "servidores": 21,
      "total_bruto": 428919.91,
      "total_magistrado_bruto": 74075.12,
      "total_servidor_bruto": 337804.22,
      "lat": -14.4423,
      "lon": -56.7954,
      "has_coords": true
    },
    {
      "nome": "Poconé",
      "total": 27,
      "magistrados": 1,
      "servidores": 21,
      "total_bruto": 420262.9199999999,
      "total_magistrado_bruto": 75104.72,
      "total_servidor_bruto": 327442.18999999994,
      "lat": -16.2566,
      "lon": -56.6228,
      "has_coords": true
    },
    {
      "nome": "São José dos Quatro Marcos",
      "total": 27,
      "magistrados": 1,
      "servidores": 22,
      "total_bruto": 438909.39999999997,
      "total_magistrado_bruto": 74998.42,
      "total_servidor_bruto": 350773.89,
      "lat": -15.6291,
      "lon": -58.169,
      "has_coords": true
    },
    {
      "nome": "Comodoro",
      "total": 26,
      "magistrados": 0,
      "servidores": 21,
      "total_bruto": 324806.92000000004,
      "total_magistrado_bruto": 0.0,
      "total_servidor_bruto": 307337.56,
      "lat": -13.6577,
      "lon": -59.7948,
      "has_coords": true
    },
    {
      "nome": "Guiratinga",
      "total": 25,
      "magistrados": 1,
      "servidores": 20,
      "total_bruto": 457477.2899999999,
      "total_magistrado_bruto": 73105.11,
      "total_servidor_bruto": 370083.37999999995,
      "lat": -16.3516,
      "lon": -53.7606,
      "has_coords": true
    },
    {
      "nome": "São Félix do Araguaia",
      "total": 25,
      "magistrados": 0,
      "servidores": 22,
      "total_bruto": 370218.45999999996,
      "total_magistrado_bruto": 0.0,
      "total_servidor_bruto": 359526.32,
      "lat": -11.6167,
      "lon": -50.665,
      "has_coords": true
    },
    {
      "nome": "Rio Branco",
      "total": 25,
      "magistrados": 1,
      "servidores": 20,
      "total_bruto": 427701.8900000001,
      "total_magistrado_bruto": 71018.1,
      "total_servidor_bruto": 346505.89,
      "lat": -15.2325,
      "lon": -58.1177,
      "has_coords": true
    },
    {
      "nome": "Araputanga",
      "total": 25,
      "magistrados": 0,
      "servidores": 20,
      "total_bruto": 379914.0399999999,
      "total_magistrado_bruto": 0.0,
      "total_servidor_bruto": 365401.18,
      "lat": -15.4705,
      "lon": -58.3475,
      "has_coords": true
    },
    {
      "nome": "Pedra Preta",
      "total": 24,
      "magistrados": 1,
      "servidores": 20,
      "total_bruto": 451603.13,
      "total_magistrado_bruto": 74388.49,
      "total_servidor_bruto": 366889.7,
      "lat": -16.6222,
      "lon": -54.4778,
      "has_coords": true
    },
    {
      "nome": "Guarantã do Norte",
      "total": 23,
      "magistrados": 1,
      "servidores": 19,
      "total_bruto": 356987.38999999996,
      "total_magistrado_bruto": 72053.96,
      "total_servidor_bruto": 268729.83,
      "lat": -9.7894,
      "lon": -54.9027,
      "has_coords": true
    },
    {
      "nome": "Arenápolis",
      "total": 22,
      "magistrados": 1,
      "servidores": 18,
      "total_bruto": 398549.37999999995,
      "total_magistrado_bruto": 74860.54,
      "total_servidor_bruto": 313294.55,
      "lat": -14.442,
      "lon": -56.8436,
      "has_coords": true
    },
    {
      "nome": "Rosário Oeste",
      "total": 22,
      "magistrados": 1,
      "servidores": 18,
      "total_bruto": 391076.58999999997,
      "total_magistrado_bruto": 72408.5,
      "total_servidor_bruto": 309229.18000000005,
      "lat": -14.8341,
      "lon": -56.4271,
      "has_coords": true
    },
    {
      "nome": "Itiquira",
      "total": 22,
      "magistrados": 1,
      "servidores": 15,
      "total_bruto": 309462.62,
      "total_magistrado_bruto": 73339.51,
      "total_servidor_bruto": 216614.5,
      "lat": -17.2056,
      "lon": -54.1495,
      "has_coords": true
    },
    {
      "nome": "Jauru",
      "total": 22,
      "magistrados": 1,
      "servidores": 16,
      "total_bruto": 314592.07,
      "total_magistrado_bruto": 95592.81,
      "total_servidor_bruto": 196025.38000000003,
      "lat": -15.3394,
      "lon": -58.1643,
      "has_coords": true
    },
    {
      "nome": "Dom Aquino",
      "total": 21,
      "magistrados": 1,
      "servidores": 17,
      "total_bruto": 326763.70999999996,
      "total_magistrado_bruto": 72711.65,
      "total_servidor_bruto": 244340.39,
      "lat": -15.8068,
      "lon": -54.9253,
      "has_coords": true
    },
    {
      "nome": "Juscimeira",
      "total": 21,
      "magistrados": 1,
      "servidores": 16,
      "total_bruto": 356698.89999999997,
      "total_magistrado_bruto": 74993.42,
      "total_servidor_bruto": 268939.10000000003,
      "lat": -16.0521,
      "lon": -54.8941,
      "has_coords": true
    },
    {
      "nome": "Matupá",
      "total": 21,
      "magistrados": 1,
      "servidores": 14,
      "total_bruto": 313789.46,
      "total_magistrado_bruto": 69617.81,
      "total_servidor_bruto": 211628.91,
      "lat": -10.145,
      "lon": -54.9544,
      "has_coords": true
    },
    {
      "nome": "Porto Esperidião",
      "total": 20,
      "magistrados": 1,
      "servidores": 14,
      "total_bruto": 276569.55,
      "total_magistrado_bruto": 78361.0,
      "total_servidor_bruto": 182239.08000000002,
      "lat": -15.8598,
      "lon": -58.4612,
      "has_coords": true
    },
    {
      "nome": "Terra Nova do Norte",
      "total": 20,
      "magistrados": 0,
      "servidores": 13,
      "total_bruto": 240368.40999999997,
      "total_magistrado_bruto": 0.0,
      "total_servidor_bruto": 208055.68,
      "lat": -10.5188,
      "lon": -55.23,
      "has_coords": true
    },
    {
      "nome": "Vera",
      "total": 20,
      "magistrados": 1,
      "servidores": 15,
      "total_bruto": 292798.34,
      "total_magistrado_bruto": 75425.42,
      "total_servidor_bruto": 204831.7,
      "lat": -12.3011,
      "lon": -55.2865,
      "has_coords": true
    },
    {
      "nome": "Apiacás",
      "total": 19,
      "magistrados": 1,
      "servidores": 12,
      "total_bruto": 252081.38,
      "total_magistrado_bruto": 72846.97,
      "total_servidor_bruto": 165265.90999999997,
      "lat": -9.5503,
      "lon": -57.4656,
      "has_coords": true
    },
    {
      "nome": "Ribeirão Cascalheira",
      "total": 19,
      "magistrados": 0,
      "servidores": 13,
      "total_bruto": 191915.1,
      "total_magistrado_bruto": 0.0,
      "total_servidor_bruto": 173663.53000000003,
      "lat": -12.9347,
      "lon": -51.835,
      "has_coords": true
    },
    {
      "nome": "Cotriguaçu",
      "total": 19,
      "magistrados": 1,
      "servidores": 13,
      "total_bruto": 280086.06000000006,
      "total_magistrado_bruto": 75206.85,
      "total_servidor_bruto": 180563.38,
      "lat": -9.8485,
      "lon": -58.422,
      "has_coords": true
    },
    {
      "nome": "Alto Garças",
      "total": 19,
      "magistrados": 0,
      "servidores": 14,
      "total_bruto": 269713.4,
      "total_magistrado_bruto": 0.0,
      "total_servidor_bruto": 253557.86000000004,
      "lat": -16.9398,
      "lon": -53.5311,
      "has_coords": true
    },
    {
      "nome": "Santo Antônio de Leverger",
      "total": 19,
      "magistrados": 1,
      "servidores": 14,
      "total_bruto": 313588.62,
      "total_magistrado_bruto": 74993.42,
      "total_servidor_bruto": 219333.36000000002,
      "lat": -15.8631,
      "lon": -56.077,
      "has_coords": true
    },
    {
      "nome": "Porto dos Gaúchos",
      "total": 19,
      "magistrados": 0,
      "servidores": 15,
      "total_bruto": 245532.00000000003,
      "total_magistrado_bruto": 0.0,
      "total_servidor_bruto": 233661.09000000003,
      "lat": -11.5196,
      "lon": -57.4126,
      "has_coords": true
    },
    {
      "nome": "Querência",
      "total": 19,
      "magistrados": 1,
      "servidores": 14,
      "total_bruto": 264864.44,
      "total_magistrado_bruto": 72830.02,
      "total_servidor_bruto": 180808.47999999998,
      "lat": -12.6148,
      "lon": -52.199,
      "has_coords": true
    },
    {
      "nome": "Nova Monte Verde",
      "total": 18,
      "magistrados": 0,
      "servidores": 14,
      "total_bruto": 210878.35000000003,
      "total_magistrado_bruto": 0.0,
      "total_servidor_bruto": 200997.67,
      "lat": -9.992,
      "lon": -57.5287,
      "has_coords": true
    },
    {
      "nome": "Sapezal",
      "total": 18,
      "magistrados": 1,
      "servidores": 15,
      "total_bruto": 259714.71000000005,
      "total_magistrado_bruto": 72816.58,
      "total_servidor_bruto": 181742.44000000003,
      "lat": -13.5371,
      "lon": -58.8148,
      "has_coords": true
    },
    {
      "nome": "Itaúba",
      "total": 18,
      "magistrados": 1,
      "servidores": 11,
      "total_bruto": 237931.11,
      "total_magistrado_bruto": 72835.89,
      "total_servidor_bruto": 148860.82,
      "lat": -10.9706,
      "lon": -55.3183,
      "has_coords": true
    },
    {
      "nome": "Vila Bela da Santíssima Trindade",
      "total": 17,
      "magistrados": 1,
      "servidores": 13,
      "total_bruto": 224584.96999999997,
      "total_magistrado_bruto": 39714.17,
      "total_servidor_bruto": 175136.09,
      "lat": -15.0038,
      "lon": -59.944,
      "has_coords": true
    },
    {
      "nome": "Nobres",
      "total": 17,
      "magistrados": 1,
      "servidores": 13,
      "total_bruto": 277852.67,
      "total_magistrado_bruto": 72385.64,
      "total_servidor_bruto": 195802.96000000002,
      "lat": -14.7234,
      "lon": -56.333,
      "has_coords": true
    },
    {
      "nome": "Cláudia",
      "total": 17,
      "magistrados": 1,
      "servidores": 11,
      "total_bruto": 263999.18,
      "total_magistrado_bruto": 74993.42,
      "total_servidor_bruto": 168206.40000000002,
      "lat": -11.5012,
      "lon": -54.8801,
      "has_coords": true
    },
    {
      "nome": "Novo São Joaquim",
      "total": 17,
      "magistrados": 0,
      "servidores": 12,
      "total_bruto": 225075.45,
      "total_magistrado_bruto": 0.0,
      "total_servidor_bruto": 211791.66999999998,
      "lat": -14.8869,
      "lon": -53.0663,
      "has_coords": true
    },
    {
      "nome": "Alto Taquari",
      "total": 17,
      "magistrados": 1,
      "servidores": 11,
      "total_bruto": 246598.52000000002,
      "total_magistrado_bruto": 71704.75,
      "total_servidor_bruto": 159407.65,
      "lat": -17.8223,
      "lon": -53.2758,
      "has_coords": true
    },
    {
      "nome": "Tabaporã",
      "total": 16,
      "magistrados": 0,
      "servidores": 10,
      "total_bruto": 148258.57000000004,
      "total_magistrado_bruto": 0.0,
      "total_servidor_bruto": 129200.24,
      "lat": -11.57,
      "lon": -57.738,
      "has_coords": true
    },
    {
      "nome": "Tapurah",
      "total": 16,
      "magistrados": 1,
      "servidores": 12,
      "total_bruto": 259028.97999999998,
      "total_magistrado_bruto": 73043.93,
      "total_servidor_bruto": 178868.95,
      "lat": -12.786,
      "lon": -56.5173,
      "has_coords": true
    },
    {
      "nome": "Paranaíta",
      "total": 16,
      "magistrados": 0,
      "servidores": 12,
      "total_bruto": 188897.03000000003,
      "total_magistrado_bruto": 0.0,
      "total_servidor_bruto": 175233.51,
      "lat": -9.6692,
      "lon": -56.4707,
      "has_coords": true
    },
    {
      "nome": "Feliz Natal",
      "total": 16,
      "magistrados": 1,
      "servidores": 12,
      "total_bruto": 303232.01999999996,
      "total_magistrado_bruto": 74323.9,
      "total_servidor_bruto": 221495.45,
      "lat": -12.5578,
      "lon": -54.9176,
      "has_coords": true
    },
    {
      "nome": "Aripuanã",
      "total": 16,
      "magistrados": 0,
      "servidores": 11,
      "total_bruto": 161944.56,
      "total_magistrado_bruto": 0.0,
      "total_servidor_bruto": 146494.05000000002,
      "lat": -9.1683,
      "lon": -60.6324,
      "has_coords": true
    },
    {
      "nome": "Nova Ubiratã",
      "total": 15,
      "magistrados": 0,
      "servidores": 10,
      "total_bruto": 194976.26,
      "total_magistrado_bruto": 0.0,
      "total_servidor_bruto": 164836.39,
      "lat": -13.0277,
      "lon": -55.2567,
      "has_coords": true
    },
    {
      "nome": "Marcelândia",
      "total": 15,
      "magistrados": 0,
      "servidores": 12,
      "total_bruto": 174952.27000000002,
      "total_magistrado_bruto": 0.0,
      "total_servidor_bruto": 165986.68,
      "lat": -11.0595,
      "lon": -54.6491,
      "has_coords": true
    },
    {
      "nome": "Brasnorte",
      "total": 15,
      "magistrados": 0,
      "servidores": 11,
      "total_bruto": 168628.52999999997,
      "total_magistrado_bruto": 0.0,
      "total_servidor_bruto": 162405.09,
      "lat": -12.1483,
      "lon": -58.0186,
      "has_coords": true
    },
    {
      "nome": "Campinápolis",
      "total": 14,
      "magistrados": 1,
      "servidores": 7,
      "total_bruto": 200473.34000000003,
      "total_magistrado_bruto": 72822.36,
      "total_servidor_bruto": 110908.51,
      "lat": -14.419,
      "lon": -52.8252,
      "has_coords": true
    },
    {
      "nome": "Nova Canaã do Norte",
      "total": 14,
      "magistrados": 0,
      "servidores": 9,
      "total_bruto": 143742.35,
      "total_magistrado_bruto": 0.0,
      "total_servidor_bruto": 131449.3,
      "lat": -10.4701,
      "lon": -55.3699,
      "has_coords": true
    },
    {
      "nome": "Colniza",
      "total": 14,
      "magistrados": 0,
      "servidores": 9,
      "total_bruto": 138567.75999999998,
      "total_magistrado_bruto": 0.0,
      "total_servidor_bruto": 123627.81,
      "lat": -9.4133,
      "lon": -59.0124,
      "has_coords": true
    },
    {
      "nome": "Mirassol DOeste",
      "total": 3,
      "magistrados": 3,
      "servidores": 0,
      "total_bruto": 222066.2,
      "total_magistrado_bruto": 222066.2,
      "total_servidor_bruto": 0.0,
      "lat": -15.6699,
      "lon": -58.0998,
      "has_coords": true
    },
    {
      "nome": "Castanheira",
      "total": 1,
      "magistrados": 0,
      "servidores": 0,
      "total_bruto": 3143.54,
      "total_magistrado_bruto": 0.0,
      "total_servidor_bruto": 0.0,
      "lat": -11.1437,
      "lon": -58.6107,
      "has_coords": true
    },
    {
      "nome": "Santa Terezinha",
      "total": 1,
      "magistrados": 0,
      "servidores": 0,
      "total_bruto": 3143.54,
      "total_magistrado_bruto": 0.0,
      "total_servidor_bruto": 0.0,
      "lat": -10.4714,
      "lon": -50.5197,
      "has_coords": true
    },
    {
      "nome": "São José do Povo",
      "total": 1,
      "magistrados": 0,
      "servidores": 0,
      "total_bruto": 3143.54,
      "total_magistrado_bruto": 0.0,
      "total_servidor_bruto": 0.0,
      "lat": -16.8571,
      "lon": -54.2889,
      "has_coords": true
    },
    {
      "nome": "Nova Maringá",
      "total": 1,
      "magistrados": 0,
      "servidores": 0,
      "total_bruto": 3143.54,
      "total_magistrado_bruto": 0.0,
      "total_servidor_bruto": 0.0,
      "lat": -13.015,
      "lon": -57.0886,
      "has_coords": true
    },
    {
      "nome": "Nova Guarita",
      "total": 1,
      "magistrados": 0,
      "servidores": 0,
      "total_bruto": 3143.54,
      "total_magistrado_bruto": 0.0,
      "total_servidor_bruto": 0.0,
      "lat": -10.2119,
      "lon": -55.2894,
      "has_coords": true
    },
    {
      "nome": "Itanhangá",
      "total": 1,
      "magistrados": 0,
      "servidores": 0,
      "total_bruto": 3143.54,
      "total_magistrado_bruto": 0.0,
      "total_servidor_bruto": 0.0,
      "lat": -12.1522,
      "lon": -56.6819,
      "has_coords": true
    },
    {
      "nome": "Novo Mundo",
      "total": 1,
      "magistrados": 0,
      "servidores": 0,
      "total_bruto": 3143.54,
      "total_magistrado_bruto": 0.0,
      "total_servidor_bruto": 0.0,
      "lat": -9.9847,
      "lon": -54.9736,
      "has_coords": true
    },
    {
      "nome": "Vale de são Domingos",
      "total": 1,
      "magistrados": 0,
      "servidores": 0,
      "total_bruto": 2553.31,
      "total_magistrado_bruto": 0.0,
      "total_servidor_bruto": 0.0,
      "lat": -15.2997,
      "lon": -59.0183,
      "has_coords": true
    },
    {
      "nome": "Novo Horizonte do Norte",
      "total": 1,
      "magistrados": 0,
      "servidores": 0,
      "total_bruto": 3143.54,
      "total_magistrado_bruto": 0.0,
      "total_servidor_bruto": 0.0,
      "lat": -11.4008,
      "lon": -57.346,
      "has_coords": true
    },
    {
      "nome": "Jangada",
      "total": 1,
      "magistrados": 0,
      "servidores": 0,
      "total_bruto": 3143.54,
      "total_magistrado_bruto": 0.0,
      "total_servidor_bruto": 0.0,
      "lat": -15.2303,
      "lon": -56.4916,
      "has_coords": true
    },
    {
      "nome": "Pontal do Araguaia",
      "total": 1,
      "magistrados": 0,
      "servidores": 0,
      "total_bruto": 3143.54,
      "total_magistrado_bruto": 0.0,
      "total_servidor_bruto": 0.0,
      "lat": -15.9981,
      "lon": -52.0093,
      "has_coords": true
    },
    {
      "nome": "União do Sul",
      "total": 1,
      "magistrados": 0,
      "servidores": 0,
      "total_bruto": 3143.54,
      "total_magistrado_bruto": 0.0,
      "total_servidor_bruto": 0.0,
      "lat": -11.5363,
      "lon": -54.305,
      "has_coords": true
    },
    {
      "nome": "Tesouro",
      "total": 1,
      "magistrados": 0,
      "servidores": 0,
      "total_bruto": 2553.31,
      "total_magistrado_bruto": 0.0,
      "total_servidor_bruto": 0.0,
      "lat": -16.0786,
      "lon": -53.5588,
      "has_coords": true
    },
    {
      "nome": "Conquista D'Oeste",
      "total": 1,
      "magistrados": 0,
      "servidores": 0,
      "total_bruto": 2553.31,
      "total_magistrado_bruto": 0.0,
      "total_servidor_bruto": 0.0,
      "lat": -12.9797,
      "lon": -59.9408,
      "has_coords": true
    },
    {
      "nome": "Bom Jesus do Araguaia",
      "total": 1,
      "magistrados": 0,
      "servidores": 0,
      "total_bruto": 3143.54,
      "total_magistrado_bruto": 0.0,
      "total_servidor_bruto": 0.0,
      "lat": -11.3922,
      "lon": -51.7547,
      "has_coords": true
    },
    {
      "nome": "Torixoréu",
      "total": 1,
      "magistrados": 0,
      "servidores": 0,
      "total_bruto": 2687.68,
      "total_magistrado_bruto": 0.0,
      "total_servidor_bruto": 0.0,
      "lat": -16.197,
      "lon": -52.5697,
      "has_coords": true
    },
    {
      "nome": "Glória dOeste",
      "total": 1,
      "magistrados": 0,
      "servidores": 0,
      "total_bruto": 3143.54,
      "total_magistrado_bruto": 0.0,
      "total_servidor_bruto": 0.0,
      "lat": -15.4695,
      "lon": -58.3169,
      "has_coords": true
    },
    {
      "nome": "Denise",
      "total": 1,
      "magistrados": 0,
      "servidores": 0,
      "total_bruto": 2553.31,
      "total_magistrado_bruto": 0.0,
      "total_servidor_bruto": 0.0,
      "lat": -14.7313,
      "lon": -57.0494,
      "has_coords": true
    },
    {
      "nome": "Nova Lacerda",
      "total": 1,
      "magistrados": 0,
      "servidores": 0,
      "total_bruto": 3143.54,
      "total_magistrado_bruto": 0.0,
      "total_servidor_bruto": 0.0,
      "lat": -14.4771,
      "lon": -59.5816,
      "has_coords": true
    },
    {
      "nome": "Acorizal",
      "total": 1,
      "magistrados": 0,
      "servidores": 0,
      "total_bruto": 2977.64,
      "total_magistrado_bruto": 0.0,
      "total_servidor_bruto": 0.0,
      "lat": -15.2006,
      "lon": -56.3756,
      "has_coords": true
    },
    {
      "nome": "Canabrava do Norte",
      "total": 1,
      "magistrados": 0,
      "servidores": 0,
      "total_bruto": 2553.31,
      "total_magistrado_bruto": 0.0,
      "total_servidor_bruto": 0.0,
      "lat": -10.2797,
      "lon": -51.7972,
      "has_coords": true
    },
    {
      "nome": "Porto Estrela",
      "total": 1,
      "magistrados": 0,
      "servidores": 0,
      "total_bruto": 3143.54,
      "total_magistrado_bruto": 0.0,
      "total_servidor_bruto": 0.0,
      "lat": null,
      "lon": null,
      "has_coords": false
    },
    {
      "nome": "Nossa Senhora do Livramento",
      "total": 1,
      "magistrados": 0,
      "servidores": 0,
      "total_bruto": 3143.54,
      "total_magistrado_bruto": 0.0,
      "total_servidor_bruto": 0.0,
      "lat": -15.7822,
      "lon": -56.3606,
      "has_coords": true
    },
    {
      "nome": "Juruena",
      "total": 1,
      "magistrados": 0,
      "servidores": 0,
      "total_bruto": 3143.54,
      "total_magistrado_bruto": 0.0,
      "total_servidor_bruto": 0.0,
      "lat": -10.4655,
      "lon": -58.4942,
      "has_coords": true
    },
    {
      "nome": "Figueirópolis dOeste",
      "total": 1,
      "magistrados": 0,
      "servidores": 0,
      "total_bruto": 2553.31,
      "total_magistrado_bruto": 0.0,
      "total_servidor_bruto": 0.0,
      "lat": -15.3944,
      "lon": -58.7342,
      "has_coords": true
    },
    {
      "nome": "Mirassol dOeste",
      "total": 1,
      "magistrados": 0,
      "servidores": 0,
      "total_bruto": 2829.13,
      "total_magistrado_bruto": 0.0,
      "total_servidor_bruto": 0.0,
      "lat": -15.6699,
      "lon": -58.0998,
      "has_coords": true
    },
    {
      "nome": "Nova Brasilândia",
      "total": 1,
      "magistrados": 0,
      "servidores": 0,
      "total_bruto": 2687.68,
      "total_magistrado_bruto": 0.0,
      "total_servidor_bruto": 0.0,
      "lat": -14.9506,
      "lon": -54.9426,
      "has_coords": true
    },
    {
      "nome": "Campo Novo dos Parecis",
      "total": 1,
      "magistrados": 0,
      "servidores": 1,
      "total_bruto": 17006.69,
      "total_magistrado_bruto": 0.0,
      "total_servidor_bruto": 17006.69,
      "lat": -13.6716,
      "lon": -57.8927,
      "has_coords": true
    },
    {
      "nome": "Nova Olímpia",
      "total": 1,
      "magistrados": 0,
      "servidores": 0,
      "total_bruto": 3143.54,
      "total_magistrado_bruto": 0.0,
      "total_servidor_bruto": 0.0,
      "lat": -14.7891,
      "lon": -57.2932,
      "has_coords": true
    },
    {
      "nome": "Barão de Melgaço",
      "total": 1,
      "magistrados": 0,
      "servidores": 0,
      "total_bruto": 3143.54,
      "total_magistrado_bruto": 0.0,
      "total_servidor_bruto": 0.0,
      "lat": -16.1929,
      "lon": -55.9607,
      "has_coords": true
    },
    {
      "nome": "Santa Carmem",
      "total": 1,
      "magistrados": 0,
      "servidores": 0,
      "total_bruto": 2977.64,
      "total_magistrado_bruto": 0.0,
      "total_servidor_bruto": 0.0,
      "lat": -11.4494,
      "lon": -55.2041,
      "has_coords": true
    },
    {
      "nome": "Gaúcha do Norte",
      "total": 1,
      "magistrados": 0,
      "servidores": 0,
      "total_bruto": 2687.68,
      "total_magistrado_bruto": 0.0,
      "total_servidor_bruto": 0.0,
      "lat": -13.1883,
      "lon": -53.0799,
      "has_coords": true
    },
    {
      "nome": "Nova Bandeirantes",
      "total": 1,
      "magistrados": 0,
      "servidores": 0,
      "total_bruto": 2553.31,
      "total_magistrado_bruto": 0.0,
      "total_servidor_bruto": 0.0,
      "lat": -9.8459,
      "lon": -57.9099,
      "has_coords": true
    },
    {
      "nome": "Alto Boa Vista",
      "total": 1,
      "magistrados": 0,
      "servidores": 0,
      "total_bruto": 2553.31,
      "total_magistrado_bruto": 0.0,
      "total_servidor_bruto": 0.0,
      "lat": -14.0017,
      "lon": -51.9442,
      "has_coords": true
    },
    {
      "nome": "Cocalinho",
      "total": 1,
      "magistrados": 0,
      "servidores": 0,
      "total_bruto": 2553.31,
      "total_magistrado_bruto": 0.0,
      "total_servidor_bruto": 0.0,
      "lat": -14.3756,
      "lon": -51.0217,
      "has_coords": true
    },
    {
      "nome": "Salto do Céu",
      "total": 1,
      "magistrados": 0,
      "servidores": 0,
      "total_bruto": 3143.54,
      "total_magistrado_bruto": 0.0,
      "total_servidor_bruto": 0.0,
      "lat": -15.1202,
      "lon": -58.1341,
      "has_coords": true
    },
    {
      "nome": "Campos de Júlio",
      "total": 1,
      "magistrados": 0,
      "servidores": 0,
      "total_bruto": 3143.54,
      "total_magistrado_bruto": 0.0,
      "total_servidor_bruto": 0.0,
      "lat": -13.0319,
      "lon": -59.2792,
      "has_coords": true
    },
    {
      "nome": "General Carneiro",
      "total": 1,
      "magistrados": 0,
      "servidores": 0,
      "total_bruto": 3143.54,
      "total_magistrado_bruto": 0.0,
      "total_servidor_bruto": 0.0,
      "lat": -15.7025,
      "lon": -52.6932,
      "has_coords": true
    },
    {
      "nome": "Paranaita",
      "total": 1,
      "magistrados": 1,
      "servidores": 0,
      "total_bruto": 74993.42,
      "total_magistrado_bruto": 74993.42,
      "total_servidor_bruto": 0.0,
      "lat": -9.6692,
      "lon": -56.4707,
      "has_coords": true
    },
    {
      "nome": "Alto Paraguai",
      "total": 1,
      "magistrados": 0,
      "servidores": 0,
      "total_bruto": 3143.54,
      "total_magistrado_bruto": 0.0,
      "total_servidor_bruto": 0.0,
      "lat": -14.5179,
      "lon": -56.4844,
      "has_coords": true
    },
    {
      "nome": "São Pedro da Cipa",
      "total": 1,
      "magistrados": 0,
      "servidores": 0,
      "total_bruto": 2687.68,
      "total_magistrado_bruto": 0.0,
      "total_servidor_bruto": 0.0,
      "lat": -16.2236,
      "lon": -54.7562,
      "has_coords": true
    },
    {
      "nome": "Confresa",
      "total": 1,
      "magistrados": 0,
      "servidores": 0,
      "total_bruto": 3143.54,
      "total_magistrado_bruto": 0.0,
      "total_servidor_bruto": 0.0,
      "lat": -10.6448,
      "lon": -51.5642,
      "has_coords": true
    },
    {
      "nome": "Araguaiana",
      "total": 1,
      "magistrados": 0,
      "servidores": 0,
      "total_bruto": 3143.54,
      "total_magistrado_bruto": 0.0,
      "total_servidor_bruto": 0.0,
      "lat": -15.7298,
      "lon": -51.8327,
      "has_coords": true
    },
    {
      "nome": "Carlinda",
      "total": 1,
      "magistrados": 0,
      "servidores": 0,
      "total_bruto": 2553.31,
      "total_magistrado_bruto": 0.0,
      "total_servidor_bruto": 0.0,
      "lat": -10.0292,
      "lon": -55.8291,
      "has_coords": true
    },
    {
      "nome": "Ipiranga do Norte",
      "total": 1,
      "magistrados": 0,
      "servidores": 0,
      "total_bruto": 3143.54,
      "total_magistrado_bruto": 0.0,
      "total_servidor_bruto": 0.0,
      "lat": -12.1694,
      "lon": -55.9907,
      "has_coords": true
    }
  ]
}