{
  "comarcas": [
    {
      "nome": "Sede / Não Informado",
      "total": 3024,
      "magistrados": 46,
      "servidores": 1368,
      "total_bruto": 60747653.15999981,
      "total_magistrado_bruto": 3494580.22,
      "total_servidor_bruto": 31271038.079999913,
      "lat": null,
      "lon": null,
      "has_coords": false
    },
    {
      "nome": "Cuiabá",
      "total": 1104,
      "magistrados": 97,
      "servidores": 929,
      "total_bruto": 23996325.269999947,
      "total_magistrado_bruto": 7360470.339999999,
      "total_servidor_bruto": 16242561.63999995,
      "lat": -15.5961,
      "lon": -56.0969,
      "has_coords": true
    },
    {
      "nome": "Várzea Grande",
      "total": 250,
      "magistrados": 21,
      "servidores": 203,
      "total_bruto": 5543962.319999998,
      "total_magistrado_bruto": 1563336.2000000007,
      "total_servidor_bruto": 3852210.040000002,
      "lat": -15.6469,
      "lon": -56.133,
      "has_coords": true
    },
    {
      "nome": "Rondonópolis",
      "total": 227,
      "magistrados": 17,
      "servidores": 190,
      "total_bruto": 4667162.290000002,
      "total_magistrado_bruto": 1271606.06,
      "total_servidor_bruto": 3316931.2499999995,
      "lat": -16.4699,
      "lon": -54.6362,
      "has_coords": true
    },
    {
      "nome": "Sinop",
      "total": 153,
      "magistrados": 13,
      "servidores": 133,
      "total_bruto": 3191771.579999998,
      "total_magistrado_bruto": 919372.03,
      "total_servidor_bruto": 2242853.9800000014,
      "lat": -11.8642,
      "lon": -55.5028,
      "has_coords": true
    },
    {
      "nome": "Barra do Garças",
      "total": 125,
      "magistrados": 8,
      "servidores": 103,
      "total_bruto": 2454463.5900000003,
      "total_magistrado_bruto": 587850.3,
      "total_servidor_bruto": 1814444.38,
      "lat": -15.8899,
      "lon": -52.2569,
      "has_coords": true
    },
    {
      "nome": "Cáceres",
      "total": 124,
      "magistrados": 8,
      "servidores": 110,
      "total_bruto": 2531287.540000002,
      "total_magistrado_bruto": 566482.08,
      "total_servidor_bruto": 1931466.93,
      "lat": -16.0706,
      "lon": -57.6815,
      "has_coords": true
    },
    {
      "nome": "Tangará da Serra",
      "total": 112,
      "magistrados": 8,
      "servidores": 97,
      "total_bruto": 2154492.1299999994,
      "total_magistrado_bruto": 585275.53,
      "total_servidor_bruto": 1544194.02,
      "lat": -14.6222,
      "lon": -57.5046,
      "has_coords": true
    },
    {
      "nome": "Sorriso",
      "total": 99,
      "magistrados": 8,
      "servidores": 85,
      "total_bruto": 1940756.7199999997,
      "total_magistrado_bruto": 554495.27,
      "total_servidor_bruto": 1363802.0200000003,
      "lat": -12.5441,
      "lon": -55.7271,
      "has_coords": true
    },
    {
      "nome": "Primavera do Leste",
      "total": 98,
      "magistrados": 7,
      "servidores": 84,
      "total_bruto": 1905513.9399999992,
      "total_magistrado_bruto": 504958.66000000003,
      "total_servidor_bruto": 1374848.1600000001,
      "lat": -15.5576,
      "lon": -54.2998,
      "has_coords": true
    },
    {
      "nome": "Lucas do Rio Verde",
      "total": 82,
      "magistrados": 7,
      "servidores": 69,
      "total_bruto": 1582755.3300000008,
      "total_magistrado_bruto": 504914.9,
      "total_servidor_bruto": 1056106.0899999999,
      "lat": -13.0558,
      "lon": -55.913,
      "has_coords": true
    },
    {
      "nome": "Alta Floresta",
      "total": 78,
      "magistrados": 5,
      "servidores": 66,
      "total_bruto": 1400336.1500000004,
      "total_magistrado_bruto": 366761.54000000004,
      "total_servidor_bruto": 1005897.9700000001,
      "lat": -9.875,
      "lon": -56.086,
      "has_coords": true
    },
    {
      "nome": "Diamantino",
      "total": 66,
      "magistrados": 3,
      "servidores": 62,
      "total_bruto": 1312015.0799999998,
      "total_magistrado_bruto": 220764.59,
      "total_servidor_bruto": 1088106.9500000002,
      "lat": -14.4069,
      "lon": -56.4451,
      "has_coords": true
    },
    {
      "nome": "Jaciara",
      "total": 52,
      "magistrados": 3,
      "servidores": 43,
      "total_bruto": 1103633.57,
      "total_magistrado_bruto": 220151.0,
      "total_servidor_bruto": 864033.2199999999,
      "lat": -15.9754,
      "lon": -54.9706,
      "has_coords": true
    },
    {
      "nome": "Alto Araguaia",
      "total": 50,
      "magistrados": 2,
      "servidores": 43,
      "total_bruto": 836722.2200000001,
      "total_magistrado_bruto": 147903.87,
      "total_servidor_bruto": 674949.33,
      "lat": -17.3153,
      "lon": -53.2149,
      "has_coords": true
    },
    {
      "nome": "Nova Mutum",
      "total": 50,
      "magistrados": 3,
      "servidores": 40,
      "total_bruto": 960617.3800000001,
      "total_magistrado_bruto": 219887.86,
      "total_servidor_bruto": 710544.8000000002,
      "lat": -13.8283,
      "lon": -56.0793,
      "has_coords": true
    },
    {
      "nome": "Campo Verde",
      "total": 49,
      "magistrados": 3,
      "servidores": 40,
      "total_bruto": 971113.5099999999,
      "total_magistrado_bruto": 216438.2,
      "total_servidor_bruto": 736585.3399999997,
      "lat": -15.5436,
      "lon": -55.1657,
      "has_coords": true
    },
    {
      "nome": "Colíder",
      "total": 48,
      "magistrados": 3,
      "servidores": 41,
      "total_bruto": 909297.0200000001,
      "total_magistrado_bruto": 219387.14,
      "total_servidor_bruto": 672761.7899999999,
      "lat": -10.8133,
      "lon": -55.4499,
      "has_coords": true
    },
    {
      "nome": "Pontes e Lacerda",
      "total": 45,
      "magistrados": 3,
      "servidores": 40,
      "total_bruto": 839499.1400000001,
      "total_magistrado_bruto": 218932.47,
      "total_servidor_bruto": 609460.6699999999,
      "lat": -15.2239,
      "lon": -59.3361,
      "has_coords": true
    },
    {
      "nome": "Água Boa",
      "total": 45,
      "magistrados": 4,
      "servidores": 30,
      "total_bruto": 749038.2800000001,
      "total_magistrado_bruto": 291886.73,
      "total_servidor_bruto": 405329.04000000004,
      "lat": -14.0216,
      "lon": -52.1583,
      "has_coords": true
    },
    {
      "nome": "Poxoréu",
      "total": 41,
      "magistrados": 1,
      "servidores": 36,
      "total_bruto": 670759.64,
      "total_magistrado_bruto": 73464.07,
      "total_servidor_bruto": 584404.3200000001,
      "lat": -15.8318,
      "lon": -54.3869,
      "has_coords": true
    },
    {
      "nome": "Barra do Bugres",
      "total": 40,
      "magistrados": 2,
      "servidores": 36,
      "total_bruto": 795881.1900000001,
      "total_magistrado_bruto": 148631.91999999998,
      "total_servidor_bruto": 640976.9400000001,
      "lat": -15.0683,
      "lon": -57.1816,
      "has_coords": true
    },
    {
      "nome": "Canarana",
      "total": 40,
      "magistrados": 2,
      "servidores": 33,
      "total_bruto": 645964.59,
      "total_magistrado_bruto": 143594.51,
      "total_servidor_bruto": 482814.4099999999,
      "lat": -13.5459,
      "lon": -52.2703,
      "has_coords": true
    },
    {
      "nome": "Chapada dos Guimarães",
      "total": 37,
      "magistrados": 2,
      "servidores": 32,
      "total_bruto": 731913.8400000002,
      "total_magistrado_bruto": 117796.79000000001,
      "total_servidor_bruto": 604831.5700000002,
      "lat": -15.4614,
      "lon": -55.7505,
      "has_coords": true
    },
    {
      "nome": "Mirassol D´Oeste",
      "total": 36,
      "magistrados": 0,
      "servidores": 33,
      "total_bruto": 541969.14,
      "total_magistrado_bruto": 0.0,
      "total_servidor_bruto": 533319.56,
      "lat": -15.6699,
      "lon": -58.0998,
      "has_coords": true
    },
    {
      "nome": "Campo Novo do Parecis",
      "total": 34,
      "magistrados": 2,
      "servidores": 29,
      "total_bruto": 596364.7599999998,
      "total_magistrado_bruto": 148312.58000000002,
      "total_servidor_bruto": 439338.32,
      "lat": -13.6716,
      "lon": -57.8927,
      "has_coords": true
    },
    {
      "nome": "Juína",
      "total": 34,
      "magistrados": 0,
      "servidores": 26,
      "total_bruto": 434300.04999999993,
      "total_magistrado_bruto": 0.0,
      "total_servidor_bruto": 395170.32999999996,
      "lat": -11.3742,
      "lon": -58.7423,
      "has_coords": true
    },
    {
      "nome": "Peixoto de Azevedo",
      "total": 34,
      "magistrados": 2,
      "servidores": 26,
      "total_bruto": 574260.12,
      "total_magistrado_bruto": 142172.03,
      "total_servidor_bruto": 402018.2400000001,
      "lat": -10.2274,
      "lon": -54.9774,
      "has_coords": true
    },
    {
      "nome": "Nova Xavantina",
      "total": 32,
      "magistrados": 2,
      "servidores": 28,
      "total_bruto": 563078.4999999999,
      "total_magistrado_bruto": 143206.14,
      "total_servidor_bruto": 412901.45999999996,
      "lat": -14.6682,
      "lon": -52.3553,
      "has_coords": true
    },
    {
      "nome": "Juara",
      "total": 31,
      "magistrados": 0,
      "servidores": 28,
      "total_bruto": 420483.0199999999,
      "total_magistrado_bruto": 0.0,
      "total_servidor_bruto": 410906.17999999993,
      "lat": -11.2614,
      "lon": -57.5201,
      "has_coords": true
    },
    {
      "nome": "Vila Rica",
      "total": 29,
      "magistrados": 1,
      "servidores": 21,
      "total_bruto": 401037.1499999999,
      "total_magistrado_bruto": 43728.53,
      "total_servidor_bruto": 333484.73,
      "lat": -10.0039,
      "lon": -51.1169,
      "has_coords": true
    },
    {
      "nome": "São José dos Quatro Marcos",
      "total": 29,
      "magistrados": 1,
      "servidores": 24,
      "total_bruto": 424047.72000000003,
      "total_magistrado_bruto": 75079.68,
      "total_servidor_bruto": 336671.47000000003,
      "lat": -15.6291,
      "lon": -58.169,
      "has_coords": true
    },
    {
      "nome": "São José do Rio Claro",
      "total": 29,
      "magistrados": 2,
      "servidores": 23,
      "total_bruto": 552795.22,
      "total_magistrado_bruto": 165598.22,
      "total_servidor_bruto": 373607.26999999996,
      "lat": -13.4456,
      "lon": -56.7249,
      "has_coords": true
    },
    {
      "nome": "Paranatinga",
      "total": 29,
      "magistrados": 1,
      "servidores": 27,
      "total_bruto": 479151.63,
      "total_magistrado_bruto": 74718.35,
      "total_servidor_bruto": 401289.74,
      "lat": -14.4278,
      "lon": -54.0524,
      "has_coords": true
    },
    {
      "nome": "Poconé",
      "total": 28,
      "magistrados": 1,
      "servidores": 22,
      "total_bruto": 445686.88,
      "total_magistrado_bruto": 75072.58,
      "total_servidor_bruto": 353318.57999999996,
      "lat": -16.2566,
      "lon": -56.6228,
      "has_coords": true
    },
    {
      "nome": "Porto Alegre do Norte",
      "total": 28,
      "magistrados": 0,
      "servidores": 23,
      "total_bruto": 323029.57999999996,
      "total_magistrado_bruto": 0.0,
      "total_servidor_bruto": 301174.88,
      "lat": -10.8778,
      "lon": -51.6401,
      "has_coords": true
    },
    {
      "nome": "Nortelândia",
      "total": 27,
      "magistrados": 1,
      "servidores": 21,
      "total_bruto": 387735.82999999996,
      "total_magistrado_bruto": 73970.39,
      "total_servidor_bruto": 297194.77,
      "lat": -14.4423,
      "lon": -56.7954,
      "has_coords": true
    },
    {
      "nome": "Araputanga",
      "total": 26,
      "magistrados": 0,
      "servidores": 20,
      "total_bruto": 334321.1599999999,
      "total_magistrado_bruto": 0.0,
      "total_servidor_bruto": 318007.17999999993,
      "lat": -15.4705,
      "lon": -58.3475,
      "has_coords": true
    },
    {
      "nome": "Guiratinga",
      "total": 26,
      "magistrados": 1,
      "servidores": 20,
      "total_bruto": 446719.35,
      "total_magistrado_bruto": 72861.06,
      "total_servidor_bruto": 356605.6899999999,
      "lat": -16.3516,
      "lon": -53.7606,
      "has_coords": true
    },
    {
      "nome": "Comodoro",
      "total": 25,
      "magistrados": 0,
      "servidores": 21,
      "total_bruto": 334544.63,
      "total_magistrado_bruto": 0.0,
      "total_servidor_bruto": 321865.48000000004,
      "lat": -13.6577,
      "lon": -59.7948,
      "has_coords": true
    },
    {
      "nome": "São Félix do Araguaia",
      "total": 25,
      "magistrados": 0,
      "servidores": 22,
      "total_bruto": 325495.5,
      "total_magistrado_bruto": 0.0,
      "total_servidor_bruto": 315643.88,
      "lat": -11.6167,
      "lon": -50.665,
      "has_coords": true
    },
    {
      "nome": "Guarantã do Norte",
      "total": 24,
      "magistrados": 1,
      "servidores": 19,
      "total_bruto": 351718.33999999997,
      "total_magistrado_bruto": 71796.98,
      "total_servidor_bruto": 261664.45,
      "lat": -9.7894,
      "lon": -54.9027,
      "has_coords": true
    },
    {
      "nome": "Rio Branco",
      "total": 24,
      "magistrados": 1,
      "servidores": 19,
      "total_bruto": 360236.77999999997,
      "total_magistrado_bruto": 71073.12,
      "total_servidor_bruto": 272015.57,
      "lat": -15.2325,
      "lon": -58.1177,
      "has_coords": true
    },
    {
      "nome": "Pedra Preta",
      "total": 24,
      "magistrados": 1,
      "servidores": 20,
      "total_bruto": 504239.4799999999,
      "total_magistrado_bruto": 74178.49,
      "total_servidor_bruto": 419736.05,
      "lat": -16.6222,
      "lon": -54.4778,
      "has_coords": true
    },
    {
      "nome": "Rosário Oeste",
      "total": 22,
      "magistrados": 1,
      "servidores": 18,
      "total_bruto": 380907.4800000001,
      "total_magistrado_bruto": 72198.5,
      "total_servidor_bruto": 299270.07000000007,
      "lat": -14.8341,
      "lon": -56.4271,
      "has_coords": true
    },
    {
      "nome": "Dom Aquino",
      "total": 21,
      "magistrados": 1,
      "servidores": 17,
      "total_bruto": 360417.5299999999,
      "total_magistrado_bruto": 72404.52,
      "total_servidor_bruto": 278301.33999999997,
      "lat": -15.8068,
      "lon": -54.9253,
      "has_coords": true
    },
    {
      "nome": "Itiquira",
      "total": 21,
      "magistrados": 1,
      "servidores": 15,
      "total_bruto": 317578.17000000004,
      "total_magistrado_bruto": 73394.53,
      "total_servidor_bruto": 228449.36000000002,
      "lat": -17.2056,
      "lon": -54.1495,
      "has_coords": true
    },
    {
      "nome": "Matupá",
      "total": 21,
      "magistrados": 1,
      "servidores": 14,
      "total_bruto": 280751.85000000003,
      "total_magistrado_bruto": 69283.86,
      "total_servidor_bruto": 179883.45000000004,
      "lat": -10.145,
      "lon": -54.9544,
      "has_coords": true
    },
    {
      "nome": "Arenápolis",
      "total": 21,
      "magistrados": 1,
      "servidores": 17,
      "total_bruto": 384114.20999999996,
      "total_magistrado_bruto": 73801.9,
      "total_servidor_bruto": 300758.54000000004,
      "lat": -14.442,
      "lon": -56.8436,
      "has_coords": true
    },
    {
      "nome": "Santo Antônio de Leverger",
      "total": 20,
      "magistrados": 1,
      "servidores": 15,
      "total_bruto": 298759.27,
      "total_magistrado_bruto": 74783.42,
      "total_servidor_bruto": 205214.00999999998,
      "lat": -15.8631,
      "lon": -56.077,
      "has_coords": true
    },
    {
      "nome": "Jauru",
      "total": 20,
      "magistrados": 1,
      "servidores": 15,
      "total_bruto": 279061.58999999997,
      "total_magistrado_bruto": 74884.17,
      "total_servidor_bruto": 183264.02000000002,
      "lat": -15.3394,
      "lon": -58.1643,
      "has_coords": true
    },
    {
      "nome": "Juscimeira",
      "total": 20,
      "magistrados": 1,
      "servidores": 16,
      "total_bruto": 375654.7,
      "total_magistrado_bruto": 74783.42,
      "total_servidor_bruto": 291207.20999999996,
      "lat": -16.0521,
      "lon": -54.8941,
      "has_coords": true
    },
    {
      "nome": "Porto Esperidião",
      "total": 19,
      "magistrados": 1,
      "servidores": 13,
      "total_bruto": 269764.77,
      "total_magistrado_bruto": 73246.02,
      "total_servidor_bruto": 180549.28000000003,
      "lat": -15.8598,
      "lon": -58.4612,
      "has_coords": true
    },
    {
      "nome": "Alto Garças",
      "total": 19,
      "magistrados": 0,
      "servidores": 14,
      "total_bruto": 247034.68,
      "total_magistrado_bruto": 0.0,
      "total_servidor_bruto": 230879.14,
      "lat": -16.9398,
      "lon": -53.5311,
      "has_coords": true
    },
    {
      "nome": "Vera",
      "total": 19,
      "magistrados": 1,
      "servidores": 14,
      "total_bruto": 281382.05,
      "total_magistrado_bruto": 74869.86,
      "total_servidor_bruto": 193970.97,
      "lat": -12.3011,
      "lon": -55.2865,
      "has_coords": true
    },
    {
      "nome": "Cotriguaçu",
      "total": 18,
      "magistrados": 1,
      "servidores": 12,
      "total_bruto": 245832.98,
      "total_magistrado_bruto": 75008.15,
      "total_servidor_bruto": 147899.15000000002,
      "lat": -9.8485,
      "lon": -58.422,
      "has_coords": true
    },
    {
      "nome": "Porto dos Gaúchos",
      "total": 18,
      "magistrados": 0,
      "servidores": 14,
      "total_bruto": 230896.9,
      "total_magistrado_bruto": 0.0,
      "total_servidor_bruto": 219495.88999999996,
      "lat": -11.5196,
      "lon": -57.4126,
      "has_coords": true
    },
    {
      "nome": "Querência",
      "total": 18,
      "magistrados": 1,
      "servidores": 13,
      "total_bruto": 263974.9,
      "total_magistrado_bruto": 72620.02,
      "total_servidor_bruto": 180128.94,
      "lat": -12.6148,
      "lon": -52.199,
      "has_coords": true
    },
    {
      "nome": "Terra Nova do Norte",
      "total": 18,
      "magistrados": 0,
      "servidores": 11,
      "total_bruto": 223259.63999999998,
      "total_magistrado_bruto": 0.0,
      "total_servidor_bruto": 186837.65999999997,
      "lat": -10.5188,
      "lon": -55.23,
      "has_coords": true
    },
    {
      "nome": "Alto Taquari",
      "total": 18,
      "magistrados": 1,
      "servidores": 11,
      "total_bruto": 262371.63,
      "total_magistrado_bruto": 91064.18,
      "total_servidor_bruto": 153907.65,
      "lat": -17.8223,
      "lon": -53.2758,
      "has_coords": true
    },
    {
      "nome": "Ribeirão Cascalheira",
      "total": 18,
      "magistrados": 0,
      "servidores": 12,
      "total_bruto": 203655.06000000003,
      "total_magistrado_bruto": 0.0,
      "total_servidor_bruto": 180137.41,
      "lat": -12.9347,
      "lon": -51.835,
      "has_coords": true
    },
    {
      "nome": "Apiacás",
      "total": 18,
      "magistrados": 1,
      "servidores": 10,
      "total_bruto": 233546.33,
      "total_magistrado_bruto": 72586.57,
      "total_servidor_bruto": 125130.43999999999,
      "lat": -9.5503,
      "lon": -57.4656,
      "has_coords": true
    },
    {
      "nome": "Nobres",
      "total": 17,
      "magistrados": 1,
      "servidores": 13,
      "total_bruto": 266771.46,
      "total_magistrado_bruto": 72217.52,
      "total_servidor_bruto": 184889.87,
      "lat": -14.7234,
      "lon": -56.333,
      "has_coords": true
    },
    {
      "nome": "Cláudia",
      "total": 17,
      "magistrados": 1,
      "servidores": 11,
      "total_bruto": 251655.92000000004,
      "total_magistrado_bruto": 74791.45,
      "total_servidor_bruto": 156275.11,
      "lat": -11.5012,
      "lon": -54.8801,
      "has_coords": true
    },
    {
      "nome": "Vila Bela da Santíssima Trindade",
      "total": 16,
      "magistrados": 1,
      "servidores": 12,
      "total_bruto": 216725.06000000003,
      "total_magistrado_bruto": 39714.17,
      "total_servidor_bruto": 167276.18,
      "lat": -15.0038,
      "lon": -59.944,
      "has_coords": true
    },
    {
      "nome": "Novo São Joaquim",
      "total": 16,
      "magistrados": 0,
      "servidores": 11,
      "total_bruto": 196579.72,
      "total_magistrado_bruto": 0.0,
      "total_servidor_bruto": 176325.75,
      "lat": -14.8869,
      "lon": -53.0663,
      "has_coords": true
    },
    {
      "nome": "Feliz Natal",
      "total": 16,
      "magistrados": 1,
      "servidores": 12,
      "total_bruto": 250305.34999999998,
      "total_magistrado_bruto": 74035.6,
      "total_servidor_bruto": 168857.07999999996,
      "lat": -12.5578,
      "lon": -54.9176,
      "has_coords": true
    },
    {
      "nome": "Paranaíta",
      "total": 16,
      "magistrados": 0,
      "servidores": 12,
      "total_bruto": 164103.82,
      "total_magistrado_bruto": 0.0,
      "total_servidor_bruto": 150860.59000000003,
      "lat": -9.6692,
      "lon": -56.4707,
      "has_coords": true
    },
    {
      "nome": "Nova Ubiratã",
      "total": 16,
      "magistrados": 0,
      "servidores": 11,
      "total_bruto": 171869.00999999998,
      "total_magistrado_bruto": 0.0,
      "total_servidor_bruto": 144704.88999999998,
      "lat": -13.0277,
      "lon": -55.2567,
      "has_coords": true
    },
    {
      "nome": "Itaúba",
      "total": 16,
      "magistrados": 1,
      "servidores": 9,
      "total_bruto": 246953.47000000003,
      "total_magistrado_bruto": 72625.89,
      "total_servidor_bruto": 145433.88,
      "lat": -10.9706,
      "lon": -55.3183,
      "has_coords": true
    },
    {
      "nome": "Nova Monte Verde",
      "total": 16,
      "magistrados": 0,
      "servidores": 13,
      "total_bruto": 209982.53000000003,
      "total_magistrado_bruto": 0.0,
      "total_servidor_bruto": 202569.86000000002,
      "lat": -9.992,
      "lon": -57.5287,
      "has_coords": true
    },
    {
      "nome": "Sapezal",
      "total": 15,
      "magistrados": 1,
      "servidores": 12,
      "total_bruto": 237982.62000000002,
      "total_magistrado_bruto": 72871.6,
      "total_servidor_bruto": 159955.33000000002,
      "lat": -13.5371,
      "lon": -58.8148,
      "has_coords": true
    },
    {
      "nome": "Tabaporã",
      "total": 15,
      "magistrados": 0,
      "servidores": 9,
      "total_bruto": 149214.9,
      "total_magistrado_bruto": 0.0,
      "total_servidor_bruto": 130649.52,
      "lat": -11.57,
      "lon": -57.738,
      "has_coords": true
    },
    {
      "nome": "Tapurah",
      "total": 15,
      "magistrados": 1,
      "servidores": 11,
      "total_bruto": 246714.89,
      "total_magistrado_bruto": 73098.86,
      "total_servidor_bruto": 159529.74,
      "lat": -12.786,
      "lon": -56.5173,
      "has_coords": true
    },
    {
      "nome": "Marcelândia",
      "total": 15,
      "magistrados": 0,
      "servidores": 12,
      "total_bruto": 155234.34000000003,
      "total_magistrado_bruto": 0.0,
      "total_servidor_bruto": 146268.75,
      "lat": -11.0595,
      "lon": -54.6491,
      "has_coords": true
    },
    {
      "nome": "Brasnorte",
      "total": 15,
      "magistrados": 0,
      "servidores": 10,
      "total_bruto": 192410.82,
      "total_magistrado_bruto": 0.0,
      "total_servidor_bruto": 170489.02000000002,
      "lat": -12.1483,
      "lon": -58.0186,
      "has_coords": true
    },
    {
      "nome": "Aripuanã",
      "total": 14,
      "magistrados": 0,
      "servidores": 9,
      "total_bruto": 121977.73000000001,
      "total_magistrado_bruto": 0.0,
      "total_servidor_bruto": 106947.47,
      "lat": -9.1683,
      "lon": -60.6324,
      "has_coords": true
    },
    {
      "nome": "Campinápolis",
      "total": 13,
      "magistrados": 1,
      "servidores": 6,
      "total_bruto": 201222.6,
      "total_magistrado_bruto": 72713.36,
      "total_servidor_bruto": 104796.57999999999,
      "lat": -14.419,
      "lon": -52.8252,
      "has_coords": true
    },
    {
      "nome": "Nova Canaã do Norte",
      "total": 13,
      "magistrados": 0,
      "servidores": 8,
      "total_bruto": 120441.43,
      "total_magistrado_bruto": 0.0,
      "total_servidor_bruto": 108148.37999999999,
      "lat": -10.4701,
      "lon": -55.3699,
      "has_coords": true
    },
    {
      "nome": "Colniza",
      "total": 12,
      "magistrados": 0,
      "servidores": 7,
      "total_bruto": 121758.47000000002,
      "total_magistrado_bruto": 0.0,
      "total_servidor_bruto": 100268.58000000002,
      "lat": -9.4133,
      "lon": -59.0124,
      "has_coords": true
    },
    {
      "nome": "Mirassol DOeste",
      "total": 3,
      "magistrados": 3,
      "servidores": 0,
      "total_bruto": 221139.95,
      "total_magistrado_bruto": 221139.95,
      "total_servidor_bruto": 0.0,
      "lat": -15.6699,
      "lon": -58.0998,
      "has_coords": true
    },
    {
      "nome": "Nova Guarita",
      "total": 1,
      "magistrados": 0,
      "servidores": 0,
      "total_bruto": 3143.54,
      "total_magistrado_bruto": 0.0,
      "total_servidor_bruto": 0.0,
      "lat": -10.2119,
      "lon": -55.2894,
      "has_coords": true
    },
    {
      "nome": "Novo Mundo",
      "total": 1,
      "magistrados": 0,
      "servidores": 0,
      "total_bruto": 3143.54,
      "total_magistrado_bruto": 0.0,
      "total_servidor_bruto": 0.0,
      "lat": -9.9847,
      "lon": -54.9736,
      "has_coords": true
    },
    {
      "nome": "Santa Terezinha",
      "total": 1,
      "magistrados": 0,
      "servidores": 0,
      "total_bruto": 3143.54,
      "total_magistrado_bruto": 0.0,
      "total_servidor_bruto": 0.0,
      "lat": -10.4714,
      "lon": -50.5197,
      "has_coords": true
    },
    {
      "nome": "Novo Horizonte do Norte",
      "total": 1,
      "magistrados": 0,
      "servidores": 0,
      "total_bruto": 3143.54,
      "total_magistrado_bruto": 0.0,
      "total_servidor_bruto": 0.0,
      "lat": -11.4008,
      "lon": -57.346,
      "has_coords": true
    },
    {
      "nome": "Conquista D'Oeste",
      "total": 1,
      "magistrados": 0,
      "servidores": 0,
      "total_bruto": 2553.31,
      "total_magistrado_bruto": 0.0,
      "total_servidor_bruto": 0.0,
      "lat": -12.9797,
      "lon": -59.9408,
      "has_coords": true
    },
    {
      "nome": "Nova Lacerda",
      "total": 1,
      "magistrados": 0,
      "servidores": 0,
      "total_bruto": 3143.54,
      "total_magistrado_bruto": 0.0,
      "total_servidor_bruto": 0.0,
      "lat": -14.4771,
      "lon": -59.5816,
      "has_coords": true
    },
    {
      "nome": "Nova Maringá",
      "total": 1,
      "magistrados": 0,
      "servidores": 0,
      "total_bruto": 3143.54,
      "total_magistrado_bruto": 0.0,
      "total_servidor_bruto": 0.0,
      "lat": -13.015,
      "lon": -57.0886,
      "has_coords": true
    },
    {
      "nome": "União do Sul",
      "total": 1,
      "magistrados": 0,
      "servidores": 0,
      "total_bruto": 3143.54,
      "total_magistrado_bruto": 0.0,
      "total_servidor_bruto": 0.0,
      "lat": -11.5363,
      "lon": -54.305,
      "has_coords": true
    },
    {
      "nome": "Acorizal",
      "total": 1,
      "magistrados": 0,
      "servidores": 0,
      "total_bruto": 2977.64,
      "total_magistrado_bruto": 0.0,
      "total_servidor_bruto": 0.0,
      "lat": -15.2006,
      "lon": -56.3756,
      "has_coords": true
    },
    {
      "nome": "Bom Jesus do Araguaia",
      "total": 1,
      "magistrados": 0,
      "servidores": 0,
      "total_bruto": 3143.54,
      "total_magistrado_bruto": 0.0,
      "total_servidor_bruto": 0.0,
      "lat": -11.3922,
      "lon": -51.7547,
      "has_coords": true
    },
    {
      "nome": "Denise",
      "total": 1,
      "magistrados": 0,
      "servidores": 0,
      "total_bruto": 2553.31,
      "total_magistrado_bruto": 0.0,
      "total_servidor_bruto": 0.0,
      "lat": -14.7313,
      "lon": -57.0494,
      "has_coords": true
    },
    {
      "nome": "Nossa Senhora do Livramento",
      "total": 1,
      "magistrados": 0,
      "servidores": 0,
      "total_bruto": 3143.54,
      "total_magistrado_bruto": 0.0,
      "total_servidor_bruto": 0.0,
      "lat": -15.7822,
      "lon": -56.3606,
      "has_coords": true
    },
    {
      "nome": "Juruena",
      "total": 1,
      "magistrados": 0,
      "servidores": 0,
      "total_bruto": 3143.54,
      "total_magistrado_bruto": 0.0,
      "total_servidor_bruto": 0.0,
      "lat": -10.4655,
      "lon": -58.4942,
      "has_coords": true
    },
    {
      "nome": "Tesouro",
      "total": 1,
      "magistrados": 0,
      "servidores": 0,
      "total_bruto": 2553.31,
      "total_magistrado_bruto": 0.0,
      "total_servidor_bruto": 0.0,
      "lat": -16.0786,
      "lon": -53.5588,
      "has_coords": true
    },
    {
      "nome": "Glória dOeste",
      "total": 1,
      "magistrados": 0,
      "servidores": 0,
      "total_bruto": 3143.54,
      "total_magistrado_bruto": 0.0,
      "total_servidor_bruto": 0.0,
      "lat": -15.4695,
      "lon": -58.3169,
      "has_coords": true
    },
    {
      "nome": "Figueirópolis dOeste",
      "total": 1,
      "magistrados": 0,
      "servidores": 0,
      "total_bruto": 2553.31,
      "total_magistrado_bruto": 0.0,
      "total_servidor_bruto": 0.0,
      "lat": -15.3944,
      "lon": -58.7342,
      "has_coords": true
    },
    {
      "nome": "Nova Brasilândia",
      "total": 1,
      "magistrados": 0,
      "servidores": 0,
      "total_bruto": 2687.68,
      "total_magistrado_bruto": 0.0,
      "total_servidor_bruto": 0.0,
      "lat": -14.9506,
      "lon": -54.9426,
      "has_coords": true
    },
    {
      "nome": "Torixoréu",
      "total": 1,
      "magistrados": 0,
      "servidores": 0,
      "total_bruto": 2687.68,
      "total_magistrado_bruto": 0.0,
      "total_servidor_bruto": 0.0,
      "lat": -16.197,
      "lon": -52.5697,
      "has_coords": true
    },
    {
      "nome": "Campo Novo dos Parecis",
      "total": 1,
      "magistrados": 0,
      "servidores": 1,
      "total_bruto": 16506.69,
      "total_magistrado_bruto": 0.0,
      "total_servidor_bruto": 16506.69,
      "lat": -13.6716,
      "lon": -57.8927,
      "has_coords": true
    },
    {
      "nome": "Canabrava do Norte",
      "total": 1,
      "magistrados": 0,
      "servidores": 0,
      "total_bruto": 2553.31,
      "total_magistrado_bruto": 0.0,
      "total_servidor_bruto": 0.0,
      "lat": -10.2797,
      "lon": -51.7972,
      "has_coords": true
    },
    {
      "nome": "Porto Estrela",
      "total": 1,
      "magistrados": 0,
      "servidores": 0,
      "total_bruto": 3143.54,
      "total_magistrado_bruto": 0.0,
      "total_servidor_bruto": 0.0,
      "lat": null,
      "lon": null,
      "has_coords": false
    },
    {
      "nome": "Nova Olímpia",
      "total": 1,
      "magistrados": 0,
      "servidores": 0,
      "total_bruto": 3143.54,
      "total_magistrado_bruto": 0.0,
      "total_servidor_bruto": 0.0,
      "lat": -14.7891,
      "lon": -57.2932,
      "has_coords": true
    },
    {
      "nome": "Mirassol dOeste",
      "total": 1,
      "magistrados": 0,
      "servidores": 0,
      "total_bruto": 2829.13,
      "total_magistrado_bruto": 0.0,
      "total_servidor_bruto": 0.0,
      "lat": -15.6699,
      "lon": -58.0998,
      "has_coords": true
    },
    {
      "nome": "Barão de Melgaço",
      "total": 1,
      "magistrados": 0,
      "servidores": 0,
      "total_bruto": 3143.54,
      "total_magistrado_bruto": 0.0,
      "total_servidor_bruto": 0.0,
      "lat": -16.1929,
      "lon": -55.9607,
      "has_coords": true
    },
    {
      "nome": "Alto Paraguai",
      "total": 1,
      "magistrados": 0,
      "servidores": 0,
      "total_bruto": 3143.54,
      "total_magistrado_bruto": 0.0,
      "total_servidor_bruto": 0.0,
      "lat": -14.5179,
      "lon": -56.4844,
      "has_coords": true
    },
    {
      "nome": "Gaúcha do Norte",
      "total": 1,
      "magistrados": 0,
      "servidores": 0,
      "total_bruto": 2687.68,
      "total_magistrado_bruto": 0.0,
      "total_servidor_bruto": 0.0,
      "lat": -13.1883,
      "lon": -53.0799,
      "has_coords": true
    },
    {
      "nome": "Nova Bandeirantes",
      "total": 1,
      "magistrados": 0,
      "servidores": 0,
      "total_bruto": 2553.31,
      "total_magistrado_bruto": 0.0,
      "total_servidor_bruto": 0.0,
      "lat": -9.8459,
      "lon": -57.9099,
      "has_coords": true
    },
    {
      "nome": "Santa Carmem",
      "total": 1,
      "magistrados": 0,
      "servidores": 0,
      "total_bruto": 2977.64,
      "total_magistrado_bruto": 0.0,
      "total_servidor_bruto": 0.0,
      "lat": -11.4494,
      "lon": -55.2041,
      "has_coords": true
    },
    {
      "nome": "Salto do Céu",
      "total": 1,
      "magistrados": 0,
      "servidores": 0,
      "total_bruto": 3143.54,
      "total_magistrado_bruto": 0.0,
      "total_servidor_bruto": 0.0,
      "lat": -15.1202,
      "lon": -58.1341,
      "has_coords": true
    },
    {
      "nome": "Campos de Júlio",
      "total": 1,
      "magistrados": 0,
      "servidores": 0,
      "total_bruto": 3143.54,
      "total_magistrado_bruto": 0.0,
      "total_servidor_bruto": 0.0,
      "lat": -13.0319,
      "lon": -59.2792,
      "has_coords": true
    },
    {
      "nome": "General Carneiro",
      "total": 1,
      "magistrados": 0,
      "servidores": 0,
      "total_bruto": 3143.54,
      "total_magistrado_bruto": 0.0,
      "total_servidor_bruto": 0.0,
      "lat": -15.7025,
      "lon": -52.6932,
      "has_coords": true
    },
    {
      "nome": "São Pedro da Cipa",
      "total": 1,
      "magistrados": 0,
      "servidores": 0,
      "total_bruto": 2687.68,
      "total_magistrado_bruto": 0.0,
      "total_servidor_bruto": 0.0,
      "lat": -16.2236,
      "lon": -54.7562,
      "has_coords": true
    },
    {
      "nome": "Alto Boa Vista",
      "total": 1,
      "magistrados": 0,
      "servidores": 0,
      "total_bruto": 2553.31,
      "total_magistrado_bruto": 0.0,
      "total_servidor_bruto": 0.0,
      "lat": -14.0017,
      "lon": -51.9442,
      "has_coords": true
    },
    {
      "nome": "Paranaita",
      "total": 1,
      "magistrados": 1,
      "servidores": 0,
      "total_bruto": 74783.42,
      "total_magistrado_bruto": 74783.42,
      "total_servidor_bruto": 0.0,
      "lat": -9.6692,
      "lon": -56.4707,
      "has_coords": true
    },
    {
      "nome": "Carlinda",
      "total": 1,
      "magistrados": 0,
      "servidores": 0,
      "total_bruto": 2553.31,
      "total_magistrado_bruto": 0.0,
      "total_servidor_bruto": 0.0,
      "lat": -10.0292,
      "lon": -55.8291,
      "has_coords": true
    },
    {
      "nome": "Castanheira",
      "total": 1,
      "magistrados": 0,
      "servidores": 0,
      "total_bruto": 3143.54,
      "total_magistrado_bruto": 0.0,
      "total_servidor_bruto": 0.0,
      "lat": -11.1437,
      "lon": -58.6107,
      "has_coords": true
    },
    {
      "nome": "Confresa",
      "total": 1,
      "magistrados": 0,
      "servidores": 0,
      "total_bruto": 3143.54,
      "total_magistrado_bruto": 0.0,
      "total_servidor_bruto": 0.0,
      "lat": -10.6448,
      "lon": -51.5642,
      "has_coords": true
    },
    {
      "nome": "São José do Povo",
      "total": 1,
      "magistrados": 0,
      "servidores": 0,
      "total_bruto": 3143.54,
      "total_magistrado_bruto": 0.0,
      "total_servidor_bruto": 0.0,
      "lat": -16.8571,
      "lon": -54.2889,
      "has_coords": true
    },
    {
      "nome": "Cocalinho",
      "total": 1,
      "magistrados": 0,
      "servidores": 0,
      "total_bruto": 2553.31,
      "total_magistrado_bruto": 0.0,
      "total_servidor_bruto": 0.0,
      "lat": -14.3756,
      "lon": -51.0217,
      "has_coords": true
    },
    {
      "nome": "Vale de são Domingos",
      "total": 1,
      "magistrados": 0,
      "servidores": 0,
      "total_bruto": 2553.31,
      "total_magistrado_bruto": 0.0,
      "total_servidor_bruto": 0.0,
      "lat": -15.2997,
      "lon": -59.0183,
      "has_coords": true
    },
    {
      "nome": "Itanhangá",
      "total": 1,
      "magistrados": 0,
      "servidores": 0,
      "total_bruto": 3143.54,
      "total_magistrado_bruto": 0.0,
      "total_servidor_bruto": 0.0,
      "lat": -12.1522,
      "lon": -56.6819,
      "has_coords": true
    },
    {
      "nome": "Araguaiana",
      "total": 1,
      "magistrados": 0,
      "servidores": 0,
      "total_bruto": 3143.54,
      "total_magistrado_bruto": 0.0,
      "total_servidor_bruto": 0.0,
      "lat": -15.7298,
      "lon": -51.8327,
      "has_coords": true
    },
    {
      "nome": "Ipiranga do Norte",
      "total": 1,
      "magistrados": 0,
      "servidores": 0,
      "total_bruto": 3143.54,
      "total_magistrado_bruto": 0.0,
      "total_servidor_bruto": 0.0,
      "lat": -12.1694,
      "lon": -55.9907,
      "has_coords": true
    },
    {
      "nome": "Pontal do Araguaia",
      "total": 1,
      "magistrados": 0,
      "servidores": 0,
      "total_bruto": 3143.54,
      "total_magistrado_bruto": 0.0,
      "total_servidor_bruto": 0.0,
      "lat": -15.9981,
      "lon": -52.0093,
      "has_coords": true
    },
    {
      "nome": "Jangada",
      "total": 1,
      "magistrados": 0,
      "servidores": 0,
      "total_bruto": 3143.54,
      "total_magistrado_bruto": 0.0,
      "total_servidor_bruto": 0.0,
      "lat": -15.2303,
      "lon": -56.4916,
      "has_coords": true
    }
  ]
}