{
  "comarcas": [
    {
      "nome": "Sede / Não Informado",
      "total": 3074,
      "magistrados": 49,
      "servidores": 1361,
      "total_bruto": 60944000.329999804,
      "total_magistrado_bruto": 3484653.02,
      "total_servidor_bruto": 31471905.0299999,
      "lat": null,
      "lon": null,
      "has_coords": false
    },
    {
      "nome": "Cuiabá",
      "total": 1093,
      "magistrados": 97,
      "servidores": 916,
      "total_bruto": 23816413.449999984,
      "total_magistrado_bruto": 7315868.889999998,
      "total_servidor_bruto": 16069405.52999996,
      "lat": -15.5961,
      "lon": -56.0969,
      "has_coords": true
    },
    {
      "nome": "Várzea Grande",
      "total": 250,
      "magistrados": 21,
      "servidores": 203,
      "total_bruto": 5520530.979999999,
      "total_magistrado_bruto": 1566580.0800000003,
      "total_servidor_bruto": 3824809.7699999996,
      "lat": -15.6469,
      "lon": -56.133,
      "has_coords": true
    },
    {
      "nome": "Rondonópolis",
      "total": 225,
      "magistrados": 17,
      "servidores": 188,
      "total_bruto": 4746688.11,
      "total_magistrado_bruto": 1251242.03,
      "total_servidor_bruto": 3415789.350000001,
      "lat": -16.4699,
      "lon": -54.6362,
      "has_coords": true
    },
    {
      "nome": "Sinop",
      "total": 154,
      "magistrados": 13,
      "servidores": 134,
      "total_bruto": 3353223.359999998,
      "total_magistrado_bruto": 940322.0800000001,
      "total_servidor_bruto": 2382335.0799999996,
      "lat": -11.8642,
      "lon": -55.5028,
      "has_coords": true
    },
    {
      "nome": "Barra do Garças",
      "total": 129,
      "magistrados": 8,
      "servidores": 107,
      "total_bruto": 2528815.6199999996,
      "total_magistrado_bruto": 607116.5800000001,
      "total_servidor_bruto": 1866655.0499999998,
      "lat": -15.8899,
      "lon": -52.2569,
      "has_coords": true
    },
    {
      "nome": "Cáceres",
      "total": 125,
      "magistrados": 8,
      "servidores": 111,
      "total_bruto": 2599462.840000001,
      "total_magistrado_bruto": 584670.0399999999,
      "total_servidor_bruto": 1984088.5999999999,
      "lat": -16.0706,
      "lon": -57.6815,
      "has_coords": true
    },
    {
      "nome": "Tangará da Serra",
      "total": 115,
      "magistrados": 8,
      "servidores": 100,
      "total_bruto": 2355734.3099999996,
      "total_magistrado_bruto": 585818.2399999999,
      "total_servidor_bruto": 1728357.59,
      "lat": -14.6222,
      "lon": -57.5046,
      "has_coords": true
    },
    {
      "nome": "Primavera do Leste",
      "total": 99,
      "magistrados": 7,
      "servidores": 85,
      "total_bruto": 1859829.08,
      "total_magistrado_bruto": 505582.01,
      "total_servidor_bruto": 1329033.5500000007,
      "lat": -15.5576,
      "lon": -54.2998,
      "has_coords": true
    },
    {
      "nome": "Sorriso",
      "total": 99,
      "magistrados": 8,
      "servidores": 85,
      "total_bruto": 1953231.5599999996,
      "total_magistrado_bruto": 559719.25,
      "total_servidor_bruto": 1356239.7600000002,
      "lat": -12.5441,
      "lon": -55.7271,
      "has_coords": true
    },
    {
      "nome": "Lucas do Rio Verde",
      "total": 85,
      "magistrados": 7,
      "servidores": 72,
      "total_bruto": 1612589.590000001,
      "total_magistrado_bruto": 525625.8099999999,
      "total_servidor_bruto": 1056223.88,
      "lat": -13.0558,
      "lon": -55.913,
      "has_coords": true
    },
    {
      "nome": "Alta Floresta",
      "total": 79,
      "magistrados": 5,
      "servidores": 67,
      "total_bruto": 1346305.8900000004,
      "total_magistrado_bruto": 366761.54000000004,
      "total_servidor_bruto": 951867.7100000001,
      "lat": -9.875,
      "lon": -56.086,
      "has_coords": true
    },
    {
      "nome": "Diamantino",
      "total": 66,
      "magistrados": 3,
      "servidores": 62,
      "total_bruto": 1343566.46,
      "total_magistrado_bruto": 220805.59,
      "total_servidor_bruto": 1119617.3299999998,
      "lat": -14.4069,
      "lon": -56.4451,
      "has_coords": true
    },
    {
      "nome": "Jaciara",
      "total": 53,
      "magistrados": 3,
      "servidores": 44,
      "total_bruto": 1027190.5000000001,
      "total_magistrado_bruto": 220151.0,
      "total_servidor_bruto": 787590.15,
      "lat": -15.9754,
      "lon": -54.9706,
      "has_coords": true
    },
    {
      "nome": "Nova Mutum",
      "total": 50,
      "magistrados": 3,
      "servidores": 40,
      "total_bruto": 894190.4500000002,
      "total_magistrado_bruto": 219887.86,
      "total_servidor_bruto": 644117.8700000001,
      "lat": -13.8283,
      "lon": -56.0793,
      "has_coords": true
    },
    {
      "nome": "Alto Araguaia",
      "total": 49,
      "magistrados": 2,
      "servidores": 43,
      "total_bruto": 930197.56,
      "total_magistrado_bruto": 144812.73,
      "total_servidor_bruto": 773316.9299999999,
      "lat": -17.3153,
      "lon": -53.2149,
      "has_coords": true
    },
    {
      "nome": "Campo Verde",
      "total": 49,
      "magistrados": 3,
      "servidores": 40,
      "total_bruto": 949561.9400000002,
      "total_magistrado_bruto": 216367.19,
      "total_servidor_bruto": 712636.77,
      "lat": -15.5436,
      "lon": -55.1657,
      "has_coords": true
    },
    {
      "nome": "Colíder",
      "total": 48,
      "magistrados": 3,
      "servidores": 41,
      "total_bruto": 874590.7399999999,
      "total_magistrado_bruto": 212677.3,
      "total_servidor_bruto": 644765.3499999997,
      "lat": -10.8133,
      "lon": -55.4499,
      "has_coords": true
    },
    {
      "nome": "Pontes e Lacerda",
      "total": 46,
      "magistrados": 3,
      "servidores": 40,
      "total_bruto": 882778.01,
      "total_magistrado_bruto": 212222.63,
      "total_servidor_bruto": 652528.15,
      "lat": -15.2239,
      "lon": -59.3361,
      "has_coords": true
    },
    {
      "nome": "Água Boa",
      "total": 45,
      "magistrados": 4,
      "servidores": 30,
      "total_bruto": 820865.5800000002,
      "total_magistrado_bruto": 287797.89,
      "total_servidor_bruto": 474537.11,
      "lat": -14.0216,
      "lon": -52.1583,
      "has_coords": true
    },
    {
      "nome": "Barra do Bugres",
      "total": 41,
      "magistrados": 2,
      "servidores": 36,
      "total_bruto": 774762.7800000001,
      "total_magistrado_bruto": 148673.09999999998,
      "total_servidor_bruto": 619817.3500000001,
      "lat": -15.0683,
      "lon": -57.1816,
      "has_coords": true
    },
    {
      "nome": "Poxoréu",
      "total": 41,
      "magistrados": 1,
      "servidores": 36,
      "total_bruto": 696570.1300000001,
      "total_magistrado_bruto": 73408.73,
      "total_servidor_bruto": 610270.15,
      "lat": -15.8318,
      "lon": -54.3869,
      "has_coords": true
    },
    {
      "nome": "Canarana",
      "total": 40,
      "magistrados": 2,
      "servidores": 33,
      "total_bruto": 631466.94,
      "total_magistrado_bruto": 143594.51,
      "total_servidor_bruto": 468316.75999999995,
      "lat": -13.5459,
      "lon": -52.2703,
      "has_coords": true
    },
    {
      "nome": "Chapada dos Guimarães",
      "total": 37,
      "magistrados": 2,
      "servidores": 32,
      "total_bruto": 741939.5100000001,
      "total_magistrado_bruto": 133480.09,
      "total_servidor_bruto": 599956.55,
      "lat": -15.4614,
      "lon": -55.7505,
      "has_coords": true
    },
    {
      "nome": "Mirassol D´Oeste",
      "total": 37,
      "magistrados": 0,
      "servidores": 34,
      "total_bruto": 599333.37,
      "total_magistrado_bruto": 0.0,
      "total_servidor_bruto": 590683.7899999999,
      "lat": -15.6699,
      "lon": -58.0998,
      "has_coords": true
    },
    {
      "nome": "Juína",
      "total": 34,
      "magistrados": 0,
      "servidores": 26,
      "total_bruto": 426032.5299999999,
      "total_magistrado_bruto": 0.0,
      "total_servidor_bruto": 386902.81,
      "lat": -11.3742,
      "lon": -58.7423,
      "has_coords": true
    },
    {
      "nome": "Campo Novo do Parecis",
      "total": 34,
      "magistrados": 2,
      "servidores": 29,
      "total_bruto": 623468.3399999999,
      "total_magistrado_bruto": 144957.66,
      "total_servidor_bruto": 469796.82,
      "lat": -13.6716,
      "lon": -57.8927,
      "has_coords": true
    },
    {
      "nome": "Peixoto de Azevedo",
      "total": 34,
      "magistrados": 2,
      "servidores": 26,
      "total_bruto": 523493.76999999996,
      "total_magistrado_bruto": 142172.03,
      "total_servidor_bruto": 351251.89,
      "lat": -10.2274,
      "lon": -54.9774,
      "has_coords": true
    },
    {
      "nome": "Nova Xavantina",
      "total": 32,
      "magistrados": 2,
      "servidores": 28,
      "total_bruto": 585552.9099999999,
      "total_magistrado_bruto": 138905.58,
      "total_servidor_bruto": 439676.43000000005,
      "lat": -14.6682,
      "lon": -52.3553,
      "has_coords": true
    },
    {
      "nome": "Vila Rica",
      "total": 31,
      "magistrados": 1,
      "servidores": 23,
      "total_bruto": 363771.31999999995,
      "total_magistrado_bruto": 43728.53,
      "total_servidor_bruto": 296218.9,
      "lat": -10.0039,
      "lon": -51.1169,
      "has_coords": true
    },
    {
      "nome": "Juara",
      "total": 31,
      "magistrados": 0,
      "servidores": 28,
      "total_bruto": 396338.88999999996,
      "total_magistrado_bruto": 0.0,
      "total_servidor_bruto": 380053.9799999999,
      "lat": -11.2614,
      "lon": -57.5201,
      "has_coords": true
    },
    {
      "nome": "São José do Rio Claro",
      "total": 29,
      "magistrados": 2,
      "servidores": 23,
      "total_bruto": 541579.97,
      "total_magistrado_bruto": 145267.76,
      "total_servidor_bruto": 382722.48000000004,
      "lat": -13.4456,
      "lon": -56.7249,
      "has_coords": true
    },
    {
      "nome": "São José dos Quatro Marcos",
      "total": 29,
      "magistrados": 1,
      "servidores": 23,
      "total_bruto": 421451.88,
      "total_magistrado_bruto": 74833.4,
      "total_servidor_bruto": 331219.60000000003,
      "lat": -15.6291,
      "lon": -58.169,
      "has_coords": true
    },
    {
      "nome": "Paranatinga",
      "total": 29,
      "magistrados": 1,
      "servidores": 27,
      "total_bruto": 460673.35999999987,
      "total_magistrado_bruto": 74584.65,
      "total_servidor_bruto": 382945.1699999999,
      "lat": -14.4278,
      "lon": -54.0524,
      "has_coords": true
    },
    {
      "nome": "Poconé",
      "total": 28,
      "magistrados": 1,
      "servidores": 22,
      "total_bruto": 420676.6699999999,
      "total_magistrado_bruto": 74817.92,
      "total_servidor_bruto": 328563.02999999997,
      "lat": -16.2566,
      "lon": -56.6228,
      "has_coords": true
    },
    {
      "nome": "Porto Alegre do Norte",
      "total": 28,
      "magistrados": 0,
      "servidores": 23,
      "total_bruto": 364616.23999999993,
      "total_magistrado_bruto": 0.0,
      "total_servidor_bruto": 342761.54,
      "lat": -10.8778,
      "lon": -51.6401,
      "has_coords": true
    },
    {
      "nome": "Nortelândia",
      "total": 27,
      "magistrados": 1,
      "servidores": 21,
      "total_bruto": 462984.02999999997,
      "total_magistrado_bruto": 74298.1,
      "total_servidor_bruto": 373668.18,
      "lat": -14.4423,
      "lon": -56.7954,
      "has_coords": true
    },
    {
      "nome": "São Félix do Araguaia",
      "total": 26,
      "magistrados": 0,
      "servidores": 22,
      "total_bruto": 375788.00000000006,
      "total_magistrado_bruto": 0.0,
      "total_servidor_bruto": 363468.37000000005,
      "lat": -11.6167,
      "lon": -50.665,
      "has_coords": true
    },
    {
      "nome": "Araputanga",
      "total": 26,
      "magistrados": 0,
      "servidores": 20,
      "total_bruto": 371698.77999999997,
      "total_magistrado_bruto": 0.0,
      "total_servidor_bruto": 348647.6699999999,
      "lat": -15.4705,
      "lon": -58.3475,
      "has_coords": true
    },
    {
      "nome": "Comodoro",
      "total": 25,
      "magistrados": 0,
      "servidores": 21,
      "total_bruto": 334580.47,
      "total_magistrado_bruto": 0.0,
      "total_servidor_bruto": 321901.32,
      "lat": -13.6577,
      "lon": -59.7948,
      "has_coords": true
    },
    {
      "nome": "Guiratinga",
      "total": 25,
      "magistrados": 1,
      "servidores": 20,
      "total_bruto": 438706.25000000006,
      "total_magistrado_bruto": 73264.13,
      "total_servidor_bruto": 351543.56,
      "lat": -16.3516,
      "lon": -53.7606,
      "has_coords": true
    },
    {
      "nome": "Rio Branco",
      "total": 24,
      "magistrados": 1,
      "servidores": 19,
      "total_bruto": 381291.72,
      "total_magistrado_bruto": 67718.2,
      "total_servidor_bruto": 296425.43000000005,
      "lat": -15.2325,
      "lon": -58.1177,
      "has_coords": true
    },
    {
      "nome": "Pedra Preta",
      "total": 24,
      "magistrados": 1,
      "servidores": 20,
      "total_bruto": 495805.60000000003,
      "total_magistrado_bruto": 74178.49,
      "total_servidor_bruto": 411302.17000000004,
      "lat": -16.6222,
      "lon": -54.4778,
      "has_coords": true
    },
    {
      "nome": "Guarantã do Norte",
      "total": 23,
      "magistrados": 1,
      "servidores": 19,
      "total_bruto": 383557.03,
      "total_magistrado_bruto": 71862.74,
      "total_servidor_bruto": 295990.68999999994,
      "lat": -9.7894,
      "lon": -54.9027,
      "has_coords": true
    },
    {
      "nome": "Rosário Oeste",
      "total": 23,
      "magistrados": 1,
      "servidores": 19,
      "total_bruto": 351788.60000000003,
      "total_magistrado_bruto": 72198.5,
      "total_servidor_bruto": 264282.56000000006,
      "lat": -14.8341,
      "lon": -56.4271,
      "has_coords": true
    },
    {
      "nome": "Jauru",
      "total": 22,
      "magistrados": 1,
      "servidores": 15,
      "total_bruto": 337840.7599999999,
      "total_magistrado_bruto": 71494.75,
      "total_servidor_bruto": 232024.25999999998,
      "lat": -15.3394,
      "lon": -58.1643,
      "has_coords": true
    },
    {
      "nome": "Matupá",
      "total": 21,
      "magistrados": 1,
      "servidores": 14,
      "total_bruto": 278386.96,
      "total_magistrado_bruto": 69243.39,
      "total_servidor_bruto": 177559.03000000003,
      "lat": -10.145,
      "lon": -54.9544,
      "has_coords": true
    },
    {
      "nome": "Arenápolis",
      "total": 21,
      "magistrados": 1,
      "servidores": 17,
      "total_bruto": 367999.08999999997,
      "total_magistrado_bruto": 70055.33,
      "total_servidor_bruto": 288389.99,
      "lat": -14.442,
      "lon": -56.8436,
      "has_coords": true
    },
    {
      "nome": "Juscimeira",
      "total": 21,
      "magistrados": 1,
      "servidores": 16,
      "total_bruto": 319653.88,
      "total_magistrado_bruto": 74783.42,
      "total_servidor_bruto": 232104.08,
      "lat": -16.0521,
      "lon": -54.8941,
      "has_coords": true
    },
    {
      "nome": "Itiquira",
      "total": 21,
      "magistrados": 1,
      "servidores": 15,
      "total_bruto": 314063.95999999996,
      "total_magistrado_bruto": 70039.61,
      "total_servidor_bruto": 223354.05000000002,
      "lat": -17.2056,
      "lon": -54.1495,
      "has_coords": true
    },
    {
      "nome": "Dom Aquino",
      "total": 20,
      "magistrados": 1,
      "servidores": 16,
      "total_bruto": 340036.09,
      "total_magistrado_bruto": 72791.3,
      "total_servidor_bruto": 257533.11999999997,
      "lat": -15.8068,
      "lon": -54.9253,
      "has_coords": true
    },
    {
      "nome": "Porto Esperidião",
      "total": 20,
      "magistrados": 1,
      "servidores": 14,
      "total_bruto": 245339.22000000003,
      "total_magistrado_bruto": 69891.1,
      "total_servidor_bruto": 159478.65000000002,
      "lat": -15.8598,
      "lon": -58.4612,
      "has_coords": true
    },
    {
      "nome": "Alto Garças",
      "total": 19,
      "magistrados": 0,
      "servidores": 14,
      "total_bruto": 274464.04000000004,
      "total_magistrado_bruto": 0.0,
      "total_servidor_bruto": 256780.62000000005,
      "lat": -16.9398,
      "lon": -53.5311,
      "has_coords": true
    },
    {
      "nome": "Santo Antônio de Leverger",
      "total": 19,
      "magistrados": 1,
      "servidores": 14,
      "total_bruto": 294644.98,
      "total_magistrado_bruto": 74783.42,
      "total_servidor_bruto": 197800.56000000003,
      "lat": -15.8631,
      "lon": -56.077,
      "has_coords": true
    },
    {
      "nome": "Querência",
      "total": 19,
      "magistrados": 1,
      "servidores": 13,
      "total_bruto": 259475.17,
      "total_magistrado_bruto": 72620.02,
      "total_servidor_bruto": 168474.38,
      "lat": -12.6148,
      "lon": -52.199,
      "has_coords": true
    },
    {
      "nome": "Apiacás",
      "total": 19,
      "magistrados": 1,
      "servidores": 11,
      "total_bruto": 241662.86000000002,
      "total_magistrado_bruto": 72685.43,
      "total_servidor_bruto": 133148.11000000002,
      "lat": -9.5503,
      "lon": -57.4656,
      "has_coords": true
    },
    {
      "nome": "Vera",
      "total": 19,
      "magistrados": 1,
      "servidores": 14,
      "total_bruto": 305379.06000000006,
      "total_magistrado_bruto": 74783.42,
      "total_servidor_bruto": 218054.42,
      "lat": -12.3011,
      "lon": -55.2865,
      "has_coords": true
    },
    {
      "nome": "Vila Bela da Santíssima Trindade",
      "total": 18,
      "magistrados": 1,
      "servidores": 14,
      "total_bruto": 236953.08999999997,
      "total_magistrado_bruto": 57864.52,
      "total_servidor_bruto": 169353.86,
      "lat": -15.0038,
      "lon": -59.944,
      "has_coords": true
    },
    {
      "nome": "Porto dos Gaúchos",
      "total": 18,
      "magistrados": 0,
      "servidores": 14,
      "total_bruto": 245126.70999999996,
      "total_magistrado_bruto": 0.0,
      "total_servidor_bruto": 233725.69999999995,
      "lat": -11.5196,
      "lon": -57.4126,
      "has_coords": true
    },
    {
      "nome": "Cotriguaçu",
      "total": 18,
      "magistrados": 1,
      "servidores": 12,
      "total_bruto": 249516.91000000003,
      "total_magistrado_bruto": 71570.83,
      "total_servidor_bruto": 156321.59,
      "lat": -9.8485,
      "lon": -58.422,
      "has_coords": true
    },
    {
      "nome": "Terra Nova do Norte",
      "total": 18,
      "magistrados": 0,
      "servidores": 11,
      "total_bruto": 196619.51,
      "total_magistrado_bruto": 0.0,
      "total_servidor_bruto": 160197.52999999997,
      "lat": -10.5188,
      "lon": -55.23,
      "has_coords": true
    },
    {
      "nome": "Ribeirão Cascalheira",
      "total": 18,
      "magistrados": 0,
      "servidores": 12,
      "total_bruto": 208244.13000000003,
      "total_magistrado_bruto": 0.0,
      "total_servidor_bruto": 184726.48,
      "lat": -12.9347,
      "lon": -51.835,
      "has_coords": true
    },
    {
      "nome": "Alto Taquari",
      "total": 17,
      "magistrados": 1,
      "servidores": 11,
      "total_bruto": 289364.4,
      "total_magistrado_bruto": 71494.75,
      "total_servidor_bruto": 177698.37000000002,
      "lat": -17.8223,
      "lon": -53.2758,
      "has_coords": true
    },
    {
      "nome": "Nobres",
      "total": 17,
      "magistrados": 1,
      "servidores": 13,
      "total_bruto": 283390.07999999996,
      "total_magistrado_bruto": 72382.43,
      "total_servidor_bruto": 201343.58000000002,
      "lat": -14.7234,
      "lon": -56.333,
      "has_coords": true
    },
    {
      "nome": "Tapurah",
      "total": 17,
      "magistrados": 1,
      "servidores": 12,
      "total_bruto": 263176.94999999995,
      "total_magistrado_bruto": 69695.64,
      "total_servidor_bruto": 176927.01,
      "lat": -12.786,
      "lon": -56.5173,
      "has_coords": true
    },
    {
      "nome": "Cláudia",
      "total": 17,
      "magistrados": 1,
      "servidores": 11,
      "total_bruto": 279685.6,
      "total_magistrado_bruto": 75398.64,
      "total_servidor_bruto": 183697.60000000003,
      "lat": -11.5012,
      "lon": -54.8801,
      "has_coords": true
    },
    {
      "nome": "Paranaíta",
      "total": 16,
      "magistrados": 0,
      "servidores": 12,
      "total_bruto": 186226.18,
      "total_magistrado_bruto": 0.0,
      "total_servidor_bruto": 172982.94999999998,
      "lat": -9.6692,
      "lon": -56.4707,
      "has_coords": true
    },
    {
      "nome": "Novo São Joaquim",
      "total": 16,
      "magistrados": 0,
      "servidores": 11,
      "total_bruto": 178979.13999999998,
      "total_magistrado_bruto": 0.0,
      "total_servidor_bruto": 158725.17,
      "lat": -14.8869,
      "lon": -53.0663,
      "has_coords": true
    },
    {
      "nome": "Nova Monte Verde",
      "total": 16,
      "magistrados": 0,
      "servidores": 13,
      "total_bruto": 184760.24,
      "total_magistrado_bruto": 0.0,
      "total_servidor_bruto": 175546.45,
      "lat": -9.992,
      "lon": -57.5287,
      "has_coords": true
    },
    {
      "nome": "Feliz Natal",
      "total": 16,
      "magistrados": 1,
      "servidores": 12,
      "total_bruto": 251508.08000000002,
      "total_magistrado_bruto": 70680.68,
      "total_servidor_bruto": 172366.88,
      "lat": -12.5578,
      "lon": -54.9176,
      "has_coords": true
    },
    {
      "nome": "Nova Ubiratã",
      "total": 16,
      "magistrados": 0,
      "servidores": 11,
      "total_bruto": 199817.24999999997,
      "total_magistrado_bruto": 0.0,
      "total_servidor_bruto": 172653.12999999998,
      "lat": -13.0277,
      "lon": -55.2567,
      "has_coords": true
    },
    {
      "nome": "Itaúba",
      "total": 16,
      "magistrados": 1,
      "servidores": 9,
      "total_bruto": 249859.56,
      "total_magistrado_bruto": 72625.89,
      "total_servidor_bruto": 148914.16,
      "lat": -10.9706,
      "lon": -55.3183,
      "has_coords": true
    },
    {
      "nome": "Brasnorte",
      "total": 15,
      "magistrados": 0,
      "servidores": 10,
      "total_bruto": 180145.77000000002,
      "total_magistrado_bruto": 0.0,
      "total_servidor_bruto": 157500.1,
      "lat": -12.1483,
      "lon": -58.0186,
      "has_coords": true
    },
    {
      "nome": "Sapezal",
      "total": 15,
      "magistrados": 1,
      "servidores": 12,
      "total_bruto": 235839.11000000002,
      "total_magistrado_bruto": 69516.68,
      "total_servidor_bruto": 156230.72000000003,
      "lat": -13.5371,
      "lon": -58.8148,
      "has_coords": true
    },
    {
      "nome": "Marcelândia",
      "total": 14,
      "magistrados": 0,
      "servidores": 11,
      "total_bruto": 170027.20000000004,
      "total_magistrado_bruto": 0.0,
      "total_servidor_bruto": 161061.61000000002,
      "lat": -11.0595,
      "lon": -54.6491,
      "has_coords": true
    },
    {
      "nome": "Tabaporã",
      "total": 14,
      "magistrados": 0,
      "servidores": 9,
      "total_bruto": 143185.26,
      "total_magistrado_bruto": 0.0,
      "total_servidor_bruto": 128672.40000000001,
      "lat": -11.57,
      "lon": -57.738,
      "has_coords": true
    },
    {
      "nome": "Campinápolis",
      "total": 13,
      "magistrados": 1,
      "servidores": 6,
      "total_bruto": 216572.83000000002,
      "total_magistrado_bruto": 69358.44,
      "total_servidor_bruto": 117377.94999999998,
      "lat": -14.419,
      "lon": -52.8252,
      "has_coords": true
    },
    {
      "nome": "Colniza",
      "total": 12,
      "magistrados": 0,
      "servidores": 7,
      "total_bruto": 111559.18000000001,
      "total_magistrado_bruto": 0.0,
      "total_servidor_bruto": 90069.29000000001,
      "lat": -9.4133,
      "lon": -59.0124,
      "has_coords": true
    },
    {
      "nome": "Nova Canaã do Norte",
      "total": 12,
      "magistrados": 0,
      "servidores": 7,
      "total_bruto": 108029.83999999998,
      "total_magistrado_bruto": 0.0,
      "total_servidor_bruto": 95736.79,
      "lat": -10.4701,
      "lon": -55.3699,
      "has_coords": true
    },
    {
      "nome": "Aripuanã",
      "total": 12,
      "magistrados": 0,
      "servidores": 8,
      "total_bruto": 144297.89,
      "total_magistrado_bruto": 0.0,
      "total_servidor_bruto": 131735.64,
      "lat": -9.1683,
      "lon": -60.6324,
      "has_coords": true
    },
    {
      "nome": "Mirassol DOeste",
      "total": 3,
      "magistrados": 3,
      "servidores": 0,
      "total_bruto": 221139.95,
      "total_magistrado_bruto": 221139.95,
      "total_servidor_bruto": 0.0,
      "lat": -15.6699,
      "lon": -58.0998,
      "has_coords": true
    },
    {
      "nome": "Pontal do Araguaia",
      "total": 1,
      "magistrados": 0,
      "servidores": 0,
      "total_bruto": 3143.54,
      "total_magistrado_bruto": 0.0,
      "total_servidor_bruto": 0.0,
      "lat": -15.9981,
      "lon": -52.0093,
      "has_coords": true
    },
    {
      "nome": "Nova Guarita",
      "total": 1,
      "magistrados": 0,
      "servidores": 0,
      "total_bruto": 3143.54,
      "total_magistrado_bruto": 0.0,
      "total_servidor_bruto": 0.0,
      "lat": -10.2119,
      "lon": -55.2894,
      "has_coords": true
    },
    {
      "nome": "Novo Mundo",
      "total": 1,
      "magistrados": 0,
      "servidores": 0,
      "total_bruto": 3143.54,
      "total_magistrado_bruto": 0.0,
      "total_servidor_bruto": 0.0,
      "lat": -9.9847,
      "lon": -54.9736,
      "has_coords": true
    },
    {
      "nome": "Santa Terezinha",
      "total": 1,
      "magistrados": 0,
      "servidores": 0,
      "total_bruto": 3143.54,
      "total_magistrado_bruto": 0.0,
      "total_servidor_bruto": 0.0,
      "lat": -10.4714,
      "lon": -50.5197,
      "has_coords": true
    },
    {
      "nome": "Novo Horizonte do Norte",
      "total": 1,
      "magistrados": 0,
      "servidores": 0,
      "total_bruto": 3143.54,
      "total_magistrado_bruto": 0.0,
      "total_servidor_bruto": 0.0,
      "lat": -11.4008,
      "lon": -57.346,
      "has_coords": true
    },
    {
      "nome": "União do Sul",
      "total": 1,
      "magistrados": 0,
      "servidores": 0,
      "total_bruto": 3143.54,
      "total_magistrado_bruto": 0.0,
      "total_servidor_bruto": 0.0,
      "lat": -11.5363,
      "lon": -54.305,
      "has_coords": true
    },
    {
      "nome": "Conquista D'Oeste",
      "total": 1,
      "magistrados": 0,
      "servidores": 0,
      "total_bruto": 2553.31,
      "total_magistrado_bruto": 0.0,
      "total_servidor_bruto": 0.0,
      "lat": -12.9797,
      "lon": -59.9408,
      "has_coords": true
    },
    {
      "nome": "Nova Lacerda",
      "total": 1,
      "magistrados": 0,
      "servidores": 0,
      "total_bruto": 3143.54,
      "total_magistrado_bruto": 0.0,
      "total_servidor_bruto": 0.0,
      "lat": -14.4771,
      "lon": -59.5816,
      "has_coords": true
    },
    {
      "nome": "Acorizal",
      "total": 1,
      "magistrados": 0,
      "servidores": 0,
      "total_bruto": 2977.64,
      "total_magistrado_bruto": 0.0,
      "total_servidor_bruto": 0.0,
      "lat": -15.2006,
      "lon": -56.3756,
      "has_coords": true
    },
    {
      "nome": "Bom Jesus do Araguaia",
      "total": 1,
      "magistrados": 0,
      "servidores": 0,
      "total_bruto": 3143.54,
      "total_magistrado_bruto": 0.0,
      "total_servidor_bruto": 0.0,
      "lat": -11.3922,
      "lon": -51.7547,
      "has_coords": true
    },
    {
      "nome": "Nova Maringá",
      "total": 1,
      "magistrados": 0,
      "servidores": 0,
      "total_bruto": 3143.54,
      "total_magistrado_bruto": 0.0,
      "total_servidor_bruto": 0.0,
      "lat": -13.015,
      "lon": -57.0886,
      "has_coords": true
    },
    {
      "nome": "Denise",
      "total": 1,
      "magistrados": 0,
      "servidores": 0,
      "total_bruto": 2553.31,
      "total_magistrado_bruto": 0.0,
      "total_servidor_bruto": 0.0,
      "lat": -14.7313,
      "lon": -57.0494,
      "has_coords": true
    },
    {
      "nome": "Nossa Senhora do Livramento",
      "total": 1,
      "magistrados": 0,
      "servidores": 0,
      "total_bruto": 3143.54,
      "total_magistrado_bruto": 0.0,
      "total_servidor_bruto": 0.0,
      "lat": -15.7822,
      "lon": -56.3606,
      "has_coords": true
    },
    {
      "nome": "Tesouro",
      "total": 1,
      "magistrados": 0,
      "servidores": 0,
      "total_bruto": 2553.31,
      "total_magistrado_bruto": 0.0,
      "total_servidor_bruto": 0.0,
      "lat": -16.0786,
      "lon": -53.5588,
      "has_coords": true
    },
    {
      "nome": "Juruena",
      "total": 1,
      "magistrados": 0,
      "servidores": 0,
      "total_bruto": 3143.54,
      "total_magistrado_bruto": 0.0,
      "total_servidor_bruto": 0.0,
      "lat": -10.4655,
      "lon": -58.4942,
      "has_coords": true
    },
    {
      "nome": "Glória dOeste",
      "total": 1,
      "magistrados": 0,
      "servidores": 0,
      "total_bruto": 3143.54,
      "total_magistrado_bruto": 0.0,
      "total_servidor_bruto": 0.0,
      "lat": -15.4695,
      "lon": -58.3169,
      "has_coords": true
    },
    {
      "nome": "Torixoréu",
      "total": 1,
      "magistrados": 0,
      "servidores": 0,
      "total_bruto": 2687.68,
      "total_magistrado_bruto": 0.0,
      "total_servidor_bruto": 0.0,
      "lat": -16.197,
      "lon": -52.5697,
      "has_coords": true
    },
    {
      "nome": "Figueirópolis dOeste",
      "total": 1,
      "magistrados": 0,
      "servidores": 0,
      "total_bruto": 2553.31,
      "total_magistrado_bruto": 0.0,
      "total_servidor_bruto": 0.0,
      "lat": -15.3944,
      "lon": -58.7342,
      "has_coords": true
    },
    {
      "nome": "Nova Brasilândia",
      "total": 1,
      "magistrados": 0,
      "servidores": 0,
      "total_bruto": 2687.68,
      "total_magistrado_bruto": 0.0,
      "total_servidor_bruto": 0.0,
      "lat": -14.9506,
      "lon": -54.9426,
      "has_coords": true
    },
    {
      "nome": "Porto Estrela",
      "total": 1,
      "magistrados": 0,
      "servidores": 0,
      "total_bruto": 3143.54,
      "total_magistrado_bruto": 0.0,
      "total_servidor_bruto": 0.0,
      "lat": null,
      "lon": null,
      "has_coords": false
    },
    {
      "nome": "Canabrava do Norte",
      "total": 1,
      "magistrados": 0,
      "servidores": 0,
      "total_bruto": 2553.31,
      "total_magistrado_bruto": 0.0,
      "total_servidor_bruto": 0.0,
      "lat": -10.2797,
      "lon": -51.7972,
      "has_coords": true
    },
    {
      "nome": "Campo Novo dos Parecis",
      "total": 1,
      "magistrados": 0,
      "servidores": 1,
      "total_bruto": 16506.69,
      "total_magistrado_bruto": 0.0,
      "total_servidor_bruto": 16506.69,
      "lat": -13.6716,
      "lon": -57.8927,
      "has_coords": true
    },
    {
      "nome": "Mirassol dOeste",
      "total": 1,
      "magistrados": 0,
      "servidores": 0,
      "total_bruto": 2829.13,
      "total_magistrado_bruto": 0.0,
      "total_servidor_bruto": 0.0,
      "lat": -15.6699,
      "lon": -58.0998,
      "has_coords": true
    },
    {
      "nome": "Barão de Melgaço",
      "total": 1,
      "magistrados": 0,
      "servidores": 0,
      "total_bruto": 3143.54,
      "total_magistrado_bruto": 0.0,
      "total_servidor_bruto": 0.0,
      "lat": -16.1929,
      "lon": -55.9607,
      "has_coords": true
    },
    {
      "nome": "Nova Olímpia",
      "total": 1,
      "magistrados": 0,
      "servidores": 0,
      "total_bruto": 3143.54,
      "total_magistrado_bruto": 0.0,
      "total_servidor_bruto": 0.0,
      "lat": -14.7891,
      "lon": -57.2932,
      "has_coords": true
    },
    {
      "nome": "Gaúcha do Norte",
      "total": 1,
      "magistrados": 0,
      "servidores": 0,
      "total_bruto": 2687.68,
      "total_magistrado_bruto": 0.0,
      "total_servidor_bruto": 0.0,
      "lat": -13.1883,
      "lon": -53.0799,
      "has_coords": true
    },
    {
      "nome": "Nova Bandeirantes",
      "total": 1,
      "magistrados": 0,
      "servidores": 0,
      "total_bruto": 2553.31,
      "total_magistrado_bruto": 0.0,
      "total_servidor_bruto": 0.0,
      "lat": -9.8459,
      "lon": -57.9099,
      "has_coords": true
    },
    {
      "nome": "Santa Carmem",
      "total": 1,
      "magistrados": 0,
      "servidores": 0,
      "total_bruto": 2977.64,
      "total_magistrado_bruto": 0.0,
      "total_servidor_bruto": 0.0,
      "lat": -11.4494,
      "lon": -55.2041,
      "has_coords": true
    },
    {
      "nome": "Alto Paraguai",
      "total": 1,
      "magistrados": 0,
      "servidores": 0,
      "total_bruto": 3143.54,
      "total_magistrado_bruto": 0.0,
      "total_servidor_bruto": 0.0,
      "lat": -14.5179,
      "lon": -56.4844,
      "has_coords": true
    },
    {
      "nome": "Salto do Céu",
      "total": 1,
      "magistrados": 0,
      "servidores": 0,
      "total_bruto": 3143.54,
      "total_magistrado_bruto": 0.0,
      "total_servidor_bruto": 0.0,
      "lat": -15.1202,
      "lon": -58.1341,
      "has_coords": true
    },
    {
      "nome": "Campos de Júlio",
      "total": 1,
      "magistrados": 0,
      "servidores": 0,
      "total_bruto": 3143.54,
      "total_magistrado_bruto": 0.0,
      "total_servidor_bruto": 0.0,
      "lat": -13.0319,
      "lon": -59.2792,
      "has_coords": true
    },
    {
      "nome": "São Pedro da Cipa",
      "total": 1,
      "magistrados": 0,
      "servidores": 0,
      "total_bruto": 2687.68,
      "total_magistrado_bruto": 0.0,
      "total_servidor_bruto": 0.0,
      "lat": -16.2236,
      "lon": -54.7562,
      "has_coords": true
    },
    {
      "nome": "Alto Boa Vista",
      "total": 1,
      "magistrados": 0,
      "servidores": 0,
      "total_bruto": 2553.31,
      "total_magistrado_bruto": 0.0,
      "total_servidor_bruto": 0.0,
      "lat": -14.0017,
      "lon": -51.9442,
      "has_coords": true
    },
    {
      "nome": "General Carneiro",
      "total": 1,
      "magistrados": 0,
      "servidores": 0,
      "total_bruto": 3143.54,
      "total_magistrado_bruto": 0.0,
      "total_servidor_bruto": 0.0,
      "lat": -15.7025,
      "lon": -52.6932,
      "has_coords": true
    },
    {
      "nome": "Paranaita",
      "total": 1,
      "magistrados": 1,
      "servidores": 0,
      "total_bruto": 74783.42,
      "total_magistrado_bruto": 74783.42,
      "total_servidor_bruto": 0.0,
      "lat": -9.6692,
      "lon": -56.4707,
      "has_coords": true
    },
    {
      "nome": "Confresa",
      "total": 1,
      "magistrados": 0,
      "servidores": 0,
      "total_bruto": 3143.54,
      "total_magistrado_bruto": 0.0,
      "total_servidor_bruto": 0.0,
      "lat": -10.6448,
      "lon": -51.5642,
      "has_coords": true
    },
    {
      "nome": "Carlinda",
      "total": 1,
      "magistrados": 0,
      "servidores": 0,
      "total_bruto": 2553.31,
      "total_magistrado_bruto": 0.0,
      "total_servidor_bruto": 0.0,
      "lat": -10.0292,
      "lon": -55.8291,
      "has_coords": true
    },
    {
      "nome": "Castanheira",
      "total": 1,
      "magistrados": 0,
      "servidores": 0,
      "total_bruto": 3143.54,
      "total_magistrado_bruto": 0.0,
      "total_servidor_bruto": 0.0,
      "lat": -11.1437,
      "lon": -58.6107,
      "has_coords": true
    },
    {
      "nome": "São José do Povo",
      "total": 1,
      "magistrados": 0,
      "servidores": 0,
      "total_bruto": 3143.54,
      "total_magistrado_bruto": 0.0,
      "total_servidor_bruto": 0.0,
      "lat": -16.8571,
      "lon": -54.2889,
      "has_coords": true
    },
    {
      "nome": "Cocalinho",
      "total": 1,
      "magistrados": 0,
      "servidores": 0,
      "total_bruto": 2553.31,
      "total_magistrado_bruto": 0.0,
      "total_servidor_bruto": 0.0,
      "lat": -14.3756,
      "lon": -51.0217,
      "has_coords": true
    },
    {
      "nome": "Araguaiana",
      "total": 1,
      "magistrados": 0,
      "servidores": 0,
      "total_bruto": 3143.54,
      "total_magistrado_bruto": 0.0,
      "total_servidor_bruto": 0.0,
      "lat": -15.7298,
      "lon": -51.8327,
      "has_coords": true
    },
    {
      "nome": "Vale de são Domingos",
      "total": 1,
      "magistrados": 0,
      "servidores": 0,
      "total_bruto": 2553.31,
      "total_magistrado_bruto": 0.0,
      "total_servidor_bruto": 0.0,
      "lat": -15.2997,
      "lon": -59.0183,
      "has_coords": true
    },
    {
      "nome": "Ipiranga do Norte",
      "total": 1,
      "magistrados": 0,
      "servidores": 0,
      "total_bruto": 3143.54,
      "total_magistrado_bruto": 0.0,
      "total_servidor_bruto": 0.0,
      "lat": -12.1694,
      "lon": -55.9907,
      "has_coords": true
    },
    {
      "nome": "Itanhangá",
      "total": 1,
      "magistrados": 0,
      "servidores": 0,
      "total_bruto": 3143.54,
      "total_magistrado_bruto": 0.0,
      "total_servidor_bruto": 0.0,
      "lat": -12.1522,
      "lon": -56.6819,
      "has_coords": true
    },
    {
      "nome": "Jangada",
      "total": 1,
      "magistrados": 0,
      "servidores": 0,
      "total_bruto": 3143.54,
      "total_magistrado_bruto": 0.0,
      "total_servidor_bruto": 0.0,
      "lat": -15.2303,
      "lon": -56.4916,
      "has_coords": true
    }
  ]
}